ID,City,Country,Latitude,Longitude,Height,Temperature,Humidity,Pressure,Wind Direction,Wind Speed
91348,WEATHER SERVICE OFFICE,"POHNPEI, CAROLINE IS., ISLANDS IN THE PACIFIC OCEAN NORTH OF THE EQUATOR",6.95,158.2,37,27.9,91,1011.3,NE,3.1
91356,KOSRAE AIRPORT VICE LELU,"KOSRAE ATOLL, CAROLINE IS., ISLANDS IN THE PACIFIC OCEAN NORTH OF THE EQUATOR",5.3333,163.0333,4,28.1,82,1010.9,E,2.1
91369,JALUIT ATOLL,"MARSHALL IS., ISLANDS IN THE PACIFIC OCEAN NORTH OF THE EQUATOR",5.9167,169.65,3,26.2,84,1005.3,E,2.6
91376,MAJURO/MARSHALL IS. INTNL.,ISLANDS IN THE PACIFIC OCEAN NORTH OF THE EQUATOR,7.0667,171.2833,4,24.9,89,1011.3,E,1.6
91408,WEATHER SERVICE OFFICE,"KOROR, PALAU WCI., ISLANDS IN THE PACIFIC OCEAN NORTH OF THE EQUATOR",7.3333,134.4833,29,28.0,83,1010.4,NE,2.1
91434,KAPINGAMARANGI ATOLL,"CAROLINE IS., ISLANDS IN THE PACIFIC OCEAN NORTH OF THE EQUATOR",1.0833,154.7667,3,28.3,80,1011.1,E,1.6
