ID,City,Country,Latitude,Longitude,Height,Temperature,Humidity,Pressure,Wind Direction,Wind Speed
47402,KITAMIESASHI,JAPAN,44.9333,142.5833,8,17.8,99,1000.8,S,2.1
47404,HABORO,JAPAN,44.35,141.7,9,18.3,96,1002.0,SW,4.1
47405,OMU,JAPAN,44.5667,142.95,15,17.0,100,1001.1,S,0.5
47411,OTARU,JAPAN,43.1667,141.0,26,18.1,93,1002.6,E,1.0
47413,IWAMIZAWA,JAPAN,43.2,141.7833,51,19.6,99,1002.8,SW,2.1
47424,TOMAKOMAI,JAPAN,42.6167,141.5333,7,19.0,98,1002.6,W,1.0
47433,KUTCHAN,JAPAN,42.9,140.75,188,17.4,98,1003.5,NE,0.5
47435,MOMBETSU,JAPAN,44.3333,143.35,17,18.4,96,1000.9,SW,1.0
47440,HIROO,JAPAN,42.2833,143.3167,34,16.7,100,1001.3,W,1.0
47512,OFUNATO,JAPAN,39.05,141.7,38,21.2,98,1004.3,SW,1.0
47520,SHINJO,JAPAN,38.75,140.3,102,23.2,84,1006.1,NW,3.1
47576,MUTSU,JAPAN,41.2833,141.2,4,21.0,86,1003.8,SW,3.6
47592,ISHINOMAKI,JAPAN,38.4167,141.2833,42,23.1,84,1005.1,NW,2.6
47597,SHIRAKAWA,JAPAN,37.1167,140.2,356,24.4,76,1005.5,N,3.1
47606,FUSHIKI,JAPAN,36.7833,137.05,13,23.9,90,1007.6,S,1.6
47616,FUKUI,JAPAN,36.05,136.2167,17,24.2,90,1008.1,SW,2.1
47617,TAKAYAMA,JAPAN,36.15,137.25,561,21.1,92,1009.0,calm,-
47620,SUWA,JAPAN,36.0333,138.1,762,22.9,77,1007.4,W,3.1
47622,KARUIZAWA,JAPAN,36.3333,138.5333,1004,21.3,77,-,W,1.6
47626,KUMAGAYA,JAPAN,36.15,139.3667,31,27.0,71,1005.0,NW,1.6
47631,TSURUGA,JAPAN,35.65,136.05,12,25.6,78,1008.1,S,2.6
47632,GIFU,JAPAN,35.4,136.75,17,25.6,80,1008.3,W,1.6
47640,KAWAGUCHIKO,JAPAN,35.5,138.75,861,19.9,89,-,NW,1.6
47641,CHICHIBU,JAPAN,35.9833,139.0667,233,22.3,91,1005.8,E,1.0
47649,UENO,JAPAN,34.75,136.1333,160,24.2,90,1008.6,NW,0.5
47653,IRAKO,JAPAN,34.6167,137.0833,7,25.8,81,1007.8,N,1.6
47654,HAMAMATSU,JAPAN,34.75,137.7,47,25.7,81,1007.5,SW,1.6
47656,SHIZUOKA,JAPAN,34.9667,138.4,15,27.2,68,1005.8,N,1.6
47657,MISHIMA,JAPAN,35.1,138.9167,21,25.9,77,1005.7,N,1.6
47666,IROZAKI,JAPAN,34.6,138.8333,53,25.8,83,1006.7,W,5.1
47668,AJIRO,JAPAN,35.0333,139.0833,67,28.3,61,1004.8,W,3.1
47674,KATSUURA,JAPAN,35.15,140.3,13,22.3,90,1005.3,S,1.6
47682,CHIBA,JAPAN,35.6,140.1,6,28.2,70,1004.9,NE,1.0
47684,YOKKAICHI,JAPAN,34.9333,136.5667,57,24.3,89,1008.2,N,1.0
47690,NIKKO,JAPAN,36.7333,139.5,1294,20.5,70,-,SW,3.6
47742,SAKAI,JAPAN,35.5333,133.2333,3,23.9,98,1007.3,NW,1.0
47744,YONAGO,JAPAN,35.4333,133.3333,8,24.1,91,1007.4,S,1.6
47747,TOYOOKA,JAPAN,35.5333,134.8167,5,23.3,97,1007.8,E,1.0
47754,HAGI,JAPAN,34.4,131.4,3,26.8,84,1007.2,S,2.1
47756,TSUYAMA,JAPAN,35.05,134.0,147,23.0,95,1008.9,N,0.5
47761,HIKONE,JAPAN,35.2667,136.2333,92,23.9,91,1008.6,E,1.6
47766,KURE,JAPAN,34.2333,132.55,5,27.4,76,1008.1,N,1.0
47767,FUKUYAMA,JAPAN,34.4333,133.2333,3,26.0,87,1008.2,NE,1.0
47768,OKAYAMA,JAPAN,34.6833,133.9167,6,25.0,94,1008.4,NE,1.6
47769,HIMEJI,JAPAN,34.8333,134.6667,39,24.4,95,1008.3,NW,2.1
47776,SUMOTO,JAPAN,34.3333,134.9,112,25.6,90,1008.1,W,1.0
47780,NARA,JAPAN,34.6833,135.8167,108,25.2,87,1008.4,E,1.6
47784,YAMAGUCHI,JAPAN,34.15,131.45,19,26.3,84,1007.8,E,1.0
47805,HIRADO,JAPAN,33.35,129.55,58,26.6,94,1006.4,S,4.1
47809,IIZUKA,JAPAN,33.65,130.6833,37,28.2,75,1007.2,S,4.1
47812,SASEBO,JAPAN,33.15,129.7167,5,28.5,79,1007.5,SE,4.6
47813,SAGA,JAPAN,33.25,130.3,33,28.2,82,1007.7,S,4.6
47814,HITA,JAPAN,33.3167,130.9167,84,25.7,86,1008.3,N,1.6
47818,UNZENDAKE,JAPAN,32.7333,130.25,679,22.8,100,1008.5,S,6.7
47822,NOBEOKA,JAPAN,32.5667,131.65,21,25.5,84,1009.0,W,1.6
47823,AKUNE,JAPAN,32.0167,130.2,42,27.9,86,1008.7,S,3.1
47824,HITOYOSHI,JAPAN,32.2167,130.75,147,25.0,93,1009.6,SE,0.5
47829,MIYAKONOJO,JAPAN,31.7167,131.0667,155,26.1,93,1009.6,SW,1.6
47831,MAKURAZAKI,JAPAN,31.2667,130.2833,31,28.2,92,1009.3,SE,3.1
47835,ABURATSU,JAPAN,31.5667,131.4,14,27.3,91,1009.5,W,3.1
47836,YAKUSHIMA,JAPAN,30.3833,130.65,38,27.6,94,1009.4,S,4.1
47838,USHIBUKA,JAPAN,32.1833,130.0167,15,28.0,91,1008.6,S,2.6
47890,TADOTSU,JAPAN,34.2667,133.75,5,26.5,85,1008.1,NW,0.5
47892,UWAJIMA,JAPAN,33.2167,132.55,14,26.1,87,1008.6,SE,0.5
47897,SUKUMO,JAPAN,32.9167,132.6833,10,26.3,90,1009.4,NE,1.0
47912,YONAGUNIJIMA,JAPAN,24.4667,123.0,36,29.1,80,1009.5,S,4.6
47917,IRIOMOTEJIMA,JAPAN,24.4167,123.75,11,28.9,84,1009.9,S,3.1
47929,KUMEJIMA,JAPAN,26.3333,126.8,6,29.3,83,1010.4,S,3.6
47940,NAGO,JAPAN,26.5833,127.95,7,28.9,89,1010.6,S,3.1
47942,OKINOERABU,JAPAN,27.4167,128.7,29,28.9,87,1010.6,S,7.2
91334,WEATHER SERVICE OFFICE,"CHUUK, ECI, ISLANDS IN THE PACIFIC OCEAN NORTH OF THE EQUATOR",7.45,151.8333,3,27.5,85,1008.4,E,3.1
91367,AILINGLAPALAP ATOLL,"MARSHALL IS., ISLANDS IN THE PACIFIC OCEAN NORTH OF THE EQUATOR",7.2667,168.8333,3,27.2,83,-,S,3.1
91376,MAJURO/MARSHALL IS. INTNL.,ISLANDS IN THE PACIFIC OCEAN NORTH OF THE EQUATOR,7.0667,171.2833,4,27.4,85,1008.8,NE,4.6
91408,WEATHER SERVICE OFFICE,"KOROR, PALAU WCI., ISLANDS IN THE PACIFIC OCEAN NORTH OF THE EQUATOR",7.3333,134.4833,29,25.8,92,1009.8,W,2.1
91490,CHRISTMAS ISLAND,ISLANDS IN THE PACIFIC OCEAN NORTH OF THE EQUATOR,1.9833,-157.4833,3,28.1,76,1009.4,E,2.6
