ID,City,Country,Latitude,Longitude,Height,Temperature,Humidity,Pressure,Wind Direction,Wind Speed
45007,HONG KONG INTERNATIONAL AIRPORT,"HONG KONG, CHINA",22.3,113.9167,7,24.0,75,1012.6,E,7.0
45032,TA KWU LING,"HONG KONG, CHINA",22.5167,114.15,14,22.2,83,1013.0,SE,4.0
45035,LAU FAU SHAN,"HONG KONG, CHINA",22.4667,113.9833,35,21.7,96,1013.1,E,3.0
45039,SHA TIN,"HONG KONG, CHINA",22.4,114.2,12,22.6,83,1013.7,E,2.0
47402,KITAMIESASHI,JAPAN,44.9333,142.5833,8,9.2,74,1010.2,W,6.2
47404,HABORO,JAPAN,44.35,141.7,9,8.1,92,1011.9,SE,2.6
47405,OMU,JAPAN,44.5667,142.95,15,10.3,68,1010.1,SW,7.2
47411,OTARU,JAPAN,43.1667,141.0,26,11.3,62,1012.6,S,1.6
47413,IWAMIZAWA,JAPAN,43.2,141.7833,51,6.2,92,1013.4,E,3.1
47424,TOMAKOMAI,JAPAN,42.6167,141.5333,7,4.8,95,1013.8,NW,1.0
47433,KUTCHAN,JAPAN,42.9,140.75,188,3.6,97,1014.8,W,0.5
47435,MOMBETSU,JAPAN,44.3333,143.35,17,10.0,63,1010.1,SW,4.6
47440,HIROO,JAPAN,42.2833,143.3167,34,9.1,74,1012.0,W,2.6
47512,OFUNATO,JAPAN,39.05,141.7,38,10.5,88,1015.2,N,3.1
47520,SHINJO,JAPAN,38.75,140.3,102,10.5,88,1017.0,NE,3.6
47576,MUTSU,JAPAN,41.2833,141.2,4,7.1,93,1015.0,NE,1.0
47592,ISHINOMAKI,JAPAN,38.4167,141.2833,42,10.8,89,1015.6,N,2.6
47597,SHIRAKAWA,JAPAN,37.1167,140.2,356,9.5,83,1015.9,NE,4.6
47606,FUSHIKI,JAPAN,36.7833,137.05,13,8.7,97,1016.7,NW,1.0
47616,FUKUI,JAPAN,36.05,136.2167,17,9.9,94,1016.3,S,1.6
47617,TAKAYAMA,JAPAN,36.15,137.25,561,5.9,93,1018.3,SW,1.6
47620,SUWA,JAPAN,36.0333,138.1,762,7.6,88,1017.3,W,3.1
47622,KARUIZAWA,JAPAN,36.3333,138.5333,1004,3.8,100,1478 m (850) ,W,1.6
47626,KUMAGAYA,JAPAN,36.15,139.3667,31,12.7,74,1014.9,NW,2.1
47631,TSURUGA,JAPAN,35.65,136.05,12,10.8,94,1016.2,SE,1.6
47632,GIFU,JAPAN,35.4,136.75,17,11.0,81,1014.0,N,2.1
47640,KAWAGUCHIKO,JAPAN,35.5,138.75,861,11.7,100,1480 m (850) ,SE,2.1
47641,CHICHIBU,JAPAN,35.9833,139.0667,233,13.0,100,1014.7,N,0.5
47649,UENO,JAPAN,34.75,136.1333,160,9.2,99,1015.9,SE,1.6
47653,IRAKO,JAPAN,34.6167,137.0833,7,14.5,63,1013.4,N,2.6
47654,HAMAMATSU,JAPAN,34.75,137.7,47,17.4,95,1012.6,NE,2.6
47656,SHIZUOKA,JAPAN,34.9667,138.4,15,18.0,85,1012.8,NE,3.1
47657,MISHIMA,JAPAN,35.1,138.9167,21,16.7,81,1013.5,SE,2.6
47666,IROZAKI,JAPAN,34.6,138.8333,53,16.3,89,1012.6,E,8.2
47668,AJIRO,JAPAN,35.0333,139.0833,67,15.4,98,1014.3,N,2.6
47674,KATSUURA,JAPAN,35.15,140.3,13,14.2,93,1014.0,N,2.6
47682,CHIBA,JAPAN,35.6,140.1,6,14.7,81,1014.7,NE,3.1
47684,YOKKAICHI,JAPAN,34.9333,136.5667,57,9.6,97,1013.8,W,1.0
47690,NIKKO,JAPAN,36.7333,139.5,1294,4.1,88,1482 m (850) ,W,4.6
47742,SAKAI,JAPAN,35.5333,133.2333,3,9.3,89,1016.1,NE,0.5
47744,YONAGO,JAPAN,35.4333,133.3333,8,8.1,87,1016.3,SE,2.1
47747,TOYOOKA,JAPAN,35.5333,134.8167,5,8.3,97,1017.5,SE,0.5
47754,HAGI,JAPAN,34.4,131.4,3,10.3,92,1015.5,S,2.6
47756,TSUYAMA,JAPAN,35.05,134.0,147,6.4,95,1017.2,W,1.0
47761,HIKONE,JAPAN,35.2667,136.2333,92,9.9,94,1015.7,SE,1.0
47766,KURE,JAPAN,34.2333,132.55,5,12.1,68,1015.9,E,1.0
47767,FUKUYAMA,JAPAN,34.4333,133.2333,3,9.1,83,1016.2,N,0.5
47768,OKAYAMA,JAPAN,34.6833,133.9167,6,9.1,87,1016.4,NE,1.0
47769,HIMEJI,JAPAN,34.8333,134.6667,39,9.0,87,1015.9,NW,3.6
47776,SUMOTO,JAPAN,34.3333,134.9,112,10.0,87,1015.9,SW,2.1
47780,NARA,JAPAN,34.6833,135.8167,108,9.7,96,1015.8,NE,1.0
47784,YAMAGUCHI,JAPAN,34.15,131.45,19,10.1,91,1016.0,NE,1.0
47805,HIRADO,JAPAN,33.35,129.55,58,13.3,84,1015.3,N,2.1
47809,IIZUKA,JAPAN,33.65,130.6833,37,11.0,92,1015.6,S,1.6
47812,SASEBO,JAPAN,33.15,129.7167,5,13.0,79,1014.9,W,0.5
47813,SAGA,JAPAN,33.25,130.3,33,12.2,71,1015.3,NW,3.1
47814,HITA,JAPAN,33.3167,130.9167,84,10.1,92,1016.2,N,1.6
47818,UNZENDAKE,JAPAN,32.7333,130.25,679,15.6,14,1013.3,E,6.7
47822,NOBEOKA,JAPAN,32.5667,131.65,21,12.0,85,1014.2,W,2.6
47823,AKUNE,JAPAN,32.0167,130.2,42,15.4,76,1013.7,E,3.1
47824,HITOYOSHI,JAPAN,32.2167,130.75,147,12.5,98,1014.8,W,1.0
47829,MIYAKONOJO,JAPAN,31.7167,131.0667,155,13.4,84,1014.1,E,1.0
47831,MAKURAZAKI,JAPAN,31.2667,130.2833,31,15.5,96,1013.0,N,3.6
47835,ABURATSU,JAPAN,31.5667,131.4,14,15.1,81,1013.4,NW,3.6
47836,YAKUSHIMA,JAPAN,30.3833,130.65,38,20.9,65,1012.9,N,2.6
47838,USHIBUKA,JAPAN,32.1833,130.0167,15,16.4,62,1013.7,NE,2.1
47890,TADOTSU,JAPAN,34.2667,133.75,5,11.4,89,1015.8,SE,1.6
47892,UWAJIMA,JAPAN,33.2167,132.55,14,12.8,90,1014.1,SE,1.6
47897,SUKUMO,JAPAN,32.9167,132.6833,10,13.3,88,1013.5,E,3.6
47912,YONAGUNIJIMA,JAPAN,24.4667,123.0,36,22.5,72,1012.3,N,5.7
47917,IRIOMOTEJIMA,JAPAN,24.4167,123.75,11,22.3,72,1012.2,NE,2.6
47929,KUMEJIMA,JAPAN,26.3333,126.8,6,22.5,72,1011.7,NE,3.6
47940,NAGO,JAPAN,26.5833,127.95,7,21.0,84,1011.6,SE,1.0
47942,OKINOERABU,JAPAN,27.4167,128.7,29,21.9,71,1011.8,N,4.1
91334,WEATHER SERVICE OFFICE,"CHUUK, ECI, ISLANDS IN THE PACIFIC OCEAN NORTH OF THE EQUATOR",7.45,151.8333,3,28.2,88,1007.8,calm,-
91348,WEATHER SERVICE OFFICE,"POHNPEI, CAROLINE IS., ISLANDS IN THE PACIFIC OCEAN NORTH OF THE EQUATOR",6.95,158.2,37,28.1,86,1009.1,E,1.6
91367,AILINGLAPALAP ATOLL,"MARSHALL IS., ISLANDS IN THE PACIFIC OCEAN NORTH OF THE EQUATOR",7.2667,168.8333,3,26.7,87,-,NE,4.1
91376,MAJURO/MARSHALL IS. INTNL.,ISLANDS IN THE PACIFIC OCEAN NORTH OF THE EQUATOR,7.0667,171.2833,4,26.8,89,1008.8,E,2.1
