ID,City,Country,Latitude,Longitude,Height,Temperature,Humidity,Pressure,Wind Direction,Wind Speed
91317,WOLEAI ATOLL,"CAROLINE IS., ISLANDS IN THE PACIFIC OCEAN NORTH OF THE EQUATOR",7.3833,143.9167,4,28.9,91,1008.9,W,2.1
91356,KOSRAE AIRPORT VICE LELU,"KOSRAE ATOLL, CAROLINE IS., ISLANDS IN THE PACIFIC OCEAN NORTH OF THE EQUATOR",5.3333,163.0333,4,27.8,83,1011.8,S,6.2
91369,JALUIT ATOLL,"MARSHALL IS., ISLANDS IN THE PACIFIC OCEAN NORTH OF THE EQUATOR",5.9167,169.65,3,26.2,84,1005.3,E,2.6
91376,MAJURO/MARSHALL IS. INTNL.,ISLANDS IN THE PACIFIC OCEAN NORTH OF THE EQUATOR,7.0667,171.2833,4,28.5,81,1011.9,S,3.1
91408,WEATHER SERVICE OFFICE,"KOROR, PALAU WCI., ISLANDS IN THE PACIFIC OCEAN NORTH OF THE EQUATOR",7.3333,134.4833,29,27.7,81,1011.5,W,4.6
