ID,City,Country,Latitude,Longitude,Height,Temperature,Humidity,Pressure,Wind Direction,Wind Speed
45007,HONG KONG INTERNATIONAL AIRPORT,"HONG KONG, CHINA",22.3,113.9167,7,27.9,80,1006.1,SE,5.0
45032,TA KWU LING,"HONG KONG, CHINA",22.5167,114.15,14,26.7,91,1006.3,E,3.0
45035,LAU FAU SHAN,"HONG KONG, CHINA",22.4667,113.9833,35,25.8,99,1006.6,SE,2.0
45039,SHA TIN,"HONG KONG, CHINA",22.4,114.2,12,27.6,88,1007.0,S,3.0
45044,CHEUNG CHAU,"HONG KONG, CHINA",22.2,114.0167,79,25.5,98,1006.8,SE,10.0
47008,CHONGJIN,DEMOCRATIC PEOPLE'S REPUBLIC OF KOREA,41.7833,129.8167,43,-,-,1011.8,NE,2.0
47014,CHUNGGANG,DEMOCRATIC PEOPLE'S REPUBLIC OF KOREA,41.7833,126.8833,331,10.0,93,1014.3,calm,-
47016,HYESAN,DEMOCRATIC PEOPLE'S REPUBLIC OF KOREA,41.4,128.1667,714,8.2,90,1013.1,calm,-
47020,KANGGYE,DEMOCRATIC PEOPLE'S REPUBLIC OF KOREA,40.9667,126.6,306,11.0,93,1023.4,calm,-
47025,KIMCHAEK,DEMOCRATIC PEOPLE'S REPUBLIC OF KOREA,40.6667,129.2,23,-,-,1008.1,calm,-
47035,SINUIJU,DEMOCRATIC PEOPLE'S REPUBLIC OF KOREA,40.1,124.3833,7,12.7,90,1012.9,S,1.0
47041,HAMHEUNG,DEMOCRATIC PEOPLE'S REPUBLIC OF KOREA,39.9333,127.55,22,15.3,91,1010.0,N,2.0
47055,WONSAN,DEMOCRATIC PEOPLE'S REPUBLIC OF KOREA,39.1833,127.4333,36,16.2,92,1010.7,calm,-
47058,PYONGYANG,DEMOCRATIC PEOPLE'S REPUBLIC OF KOREA,39.0333,125.7833,36,14.8,85,1011.4,W,2.0
47069,HAEJU,DEMOCRATIC PEOPLE'S REPUBLIC OF KOREA,38.0333,125.7,81,17.3,71,1010.5,N,3.0
47402,KITAMIESASHI,JAPAN,44.9333,142.5833,8,5.8,93,1012.3,S,1.0
47404,HABORO,JAPAN,44.35,141.7,9,6.5,92,1010.0,E,2.1
47405,OMU,JAPAN,44.5667,142.95,15,2.9,95,1012.5,SW,2.1
47411,OTARU,JAPAN,43.1667,141.0,26,10.6,85,1009.8,W,1.6
47413,IWAMIZAWA,JAPAN,43.2,141.7833,51,10.6,88,1010.0,SE,1.0
47424,TOMAKOMAI,JAPAN,42.6167,141.5333,7,12.1,89,1010.2,W,1.6
47433,KUTCHAN,JAPAN,42.9,140.75,188,11.4,92,1009.9,SW,1.0
47435,MOMBETSU,JAPAN,44.3333,143.35,17,6.0,93,1012.3,SW,0.5
47440,HIROO,JAPAN,42.2833,143.3167,34,8.8,84,1011.5,NW,1.6
47512,OFUNATO,JAPAN,39.05,141.7,38,15.0,99,1007.8,NW,1.6
47520,SHINJO,JAPAN,38.75,140.3,102,15.4,94,1008.2,NW,0.5
47576,MUTSU,JAPAN,41.2833,141.2,4,11.7,94,1010.4,E,1.0
47592,ISHINOMAKI,JAPAN,38.4167,141.2833,42,14.7,98,1007.9,NW,2.6
47597,SHIRAKAWA,JAPAN,37.1167,140.2,356,14.4,100,1008.0,E,1.0
47606,FUSHIKI,JAPAN,36.7833,137.05,13,14.3,86,1009.3,SW,2.6
47616,FUKUI,JAPAN,36.05,136.2167,17,15.0,94,1009.9,S,2.6
47617,TAKAYAMA,JAPAN,36.15,137.25,561,12.2,91,1010.3,N,1.0
47620,SUWA,JAPAN,36.0333,138.1,762,13.3,91,1008.4,NW,4.6
47622,KARUIZAWA,JAPAN,36.3333,138.5333,1004,10.0,100,-,W,1.6
47626,KUMAGAYA,JAPAN,36.15,139.3667,31,17.8,84,1007.3,NW,0.5
47631,TSURUGA,JAPAN,35.65,136.05,12,14.0,94,1009.6,S,1.6
47632,GIFU,JAPAN,35.4,136.75,17,15.8,78,1007.9,W,1.6
47640,KAWAGUCHIKO,JAPAN,35.5,138.75,861,11.8,98,-,S,1.6
47641,CHICHIBU,JAPAN,35.9833,139.0667,233,15.7,91,1008.0,S,1.6
47649,UENO,JAPAN,34.75,136.1333,160,14.0,99,1009.6,NE,1.0
47653,IRAKO,JAPAN,34.6167,137.0833,7,18.1,75,1007.3,NW,2.6
47654,HAMAMATSU,JAPAN,34.75,137.7,47,18.7,85,1006.6,N,2.1
47656,SHIZUOKA,JAPAN,34.9667,138.4,15,17.6,93,1007.1,E,2.6
47657,MISHIMA,JAPAN,35.1,138.9167,21,17.1,98,1007.7,E,1.0
47666,IROZAKI,JAPAN,34.6,138.8333,53,16.7,96,1007.0,NE,1.6
47668,AJIRO,JAPAN,35.0333,139.0833,67,16.1,100,1007.7,S,1.6
47674,KATSUURA,JAPAN,35.15,140.3,13,17.5,96,1007.1,N,1.6
47682,CHIBA,JAPAN,35.6,140.1,6,17.7,93,1007.5,E,1.6
47684,YOKKAICHI,JAPAN,34.9333,136.5667,57,14.5,88,1007.9,NW,0.5
47690,NIKKO,JAPAN,36.7333,139.5,1294,9.5,92,-,SW,3.1
47742,SAKAI,JAPAN,35.5333,133.2333,3,15.1,96,1010.3,NW,0.5
47744,YONAGO,JAPAN,35.4333,133.3333,8,14.3,94,1010.4,SE,1.6
47747,TOYOOKA,JAPAN,35.5333,134.8167,5,14.3,94,1010.2,W,1.0
47754,HAGI,JAPAN,34.4,131.4,3,14.0,98,1010.7,S,3.1
47756,TSUYAMA,JAPAN,35.05,134.0,147,12.2,99,1010.7,NW,1.0
47761,HIKONE,JAPAN,35.2667,136.2333,92,14.7,94,1009.4,SE,1.6
47766,KURE,JAPAN,34.2333,132.55,5,15.2,94,1010.5,NE,2.1
47767,FUKUYAMA,JAPAN,34.4333,133.2333,3,14.8,98,1010.6,NW,0.5
47768,OKAYAMA,JAPAN,34.6833,133.9167,6,16.2,95,1010.3,NW,2.1
47769,HIMEJI,JAPAN,34.8333,134.6667,39,14.1,94,1009.8,NW,2.1
47776,SUMOTO,JAPAN,34.3333,134.9,112,16.8,93,1009.7,W,2.6
47780,NARA,JAPAN,34.6833,135.8167,108,14.9,96,1009.7,SE,0.5
47784,YAMAGUCHI,JAPAN,34.15,131.45,19,13.6,98,1010.9,E,1.0
47805,HIRADO,JAPAN,33.35,129.55,58,16.9,86,1010.7,S,3.1
47809,IIZUKA,JAPAN,33.65,130.6833,37,14.4,93,1011.3,S,1.0
47812,SASEBO,JAPAN,33.15,129.7167,5,16.0,89,1010.9,E,1.6
47813,SAGA,JAPAN,33.25,130.3,33,15.4,90,1011.3,N,2.1
47814,HITA,JAPAN,33.3167,130.9167,84,15.1,94,1011.7,S,1.0
47818,UNZENDAKE,JAPAN,32.7333,130.25,679,11.6,96,1012.5,NW,4.1
47822,NOBEOKA,JAPAN,32.5667,131.65,21,15.8,100,1009.7,W,0.5
47823,AKUNE,JAPAN,32.0167,130.2,42,16.9,99,1010.8,NE,2.1
47824,HITOYOSHI,JAPAN,32.2167,130.75,147,15.5,100,1011.1,W,0.5
47829,MIYAKONOJO,JAPAN,31.7167,131.0667,155,17.3,100,1010.0,E,1.0
47831,MAKURAZAKI,JAPAN,31.2667,130.2833,31,18.9,93,1010.0,W,2.1
47835,ABURATSU,JAPAN,31.5667,131.4,14,18.5,100,1009.6,W,2.6
47836,YAKUSHIMA,JAPAN,30.3833,130.65,38,20.4,85,1009.1,NW,6.7
47838,USHIBUKA,JAPAN,32.1833,130.0167,15,17.9,90,1010.8,N,2.1
47890,TADOTSU,JAPAN,34.2667,133.75,5,14.8,98,1010.2,SE,1.6
47892,UWAJIMA,JAPAN,33.2167,132.55,14,15.0,96,1010.0,E,1.6
47897,SUKUMO,JAPAN,32.9167,132.6833,10,15.5,98,1009.1,NE,1.6
47912,YONAGUNIJIMA,JAPAN,24.4667,123.0,36,26.7,93,1010.5,E,3.6
47917,IRIOMOTEJIMA,JAPAN,24.4167,123.75,11,27.8,93,1011.1,S,0.5
47929,KUMEJIMA,JAPAN,26.3333,126.8,6,25.6,98,1010.8,NW,1.6
47940,NAGO,JAPAN,26.5833,127.95,7,25.3,98,1010.5,W,1.6
47942,OKINOERABU,JAPAN,27.4167,128.7,29,24.6,93,1010.5,NW,2.1
91376,MAJURO/MARSHALL IS. INTNL.,ISLANDS IN THE PACIFIC OCEAN NORTH OF THE EQUATOR,7.0667,171.2833,4,27.4,81,1011.0,E,1.6
91408,WEATHER SERVICE OFFICE,"KOROR, PALAU WCI., ISLANDS IN THE PACIFIC OCEAN NORTH OF THE EQUATOR",7.3333,134.4833,29,26.8,92,1011.1,NE,1.0
91413,WEATHER SERVICE OFFICE,"YAP, CAROLINE IS., ISLANDS IN THE PACIFIC OCEAN NORTH OF THE EQUATOR",9.4833,138.0667,28,27.4,92,1010.8,-,-
