ID,City,Country,Latitude,Longitude,Height,Temperature,Humidity,Pressure,Wind Direction,Wind Speed
47401,WAKKANAI,JAPAN,45.4,141.6667,11,12.3,56,1014.5,W,3.1
47402,KITAMIESASHI,JAPAN,44.9333,142.5833,8,13.2,47,1013.7,N,3.6
47404,HABORO,JAPAN,44.35,141.7,9,12.7,64,1015.3,SW,4.6
47405,OMU,JAPAN,44.5667,142.95,15,12.2,42,1013.8,N,4.1
47406,RUMOI,JAPAN,43.9333,141.6167,24,12.4,61,1015.5,N,2.1
47407,ASAHIKAWA,JAPAN,43.75,142.3667,140,16.5,24,1014.8,NW,6.2
47409,ABASHIRI,JAPAN,44.0167,144.2667,43,11.4,56,1013.7,N,5.1
47411,OTARU,JAPAN,43.1667,141.0,26,12.7,76,1015.9,NE,1.6
47412,SAPPORO,JAPAN,43.05,141.3167,26,16.7,34,1015.5,N,3.6
47413,IWAMIZAWA,JAPAN,43.2,141.7833,51,17.2,24,1015.5,NW,5.1
47417,OBIHIRO,JAPAN,42.9167,143.2,43,19.2,30,1013.1,NW,5.7
47418,KUSHIRO,JAPAN,42.9833,144.3667,39,11.8,70,1013.0,S,1.6
47420,NEMURO,JAPAN,43.3167,145.5833,27,14.0,58,1013.3,S,1.6
47421,SUTTSU,JAPAN,42.7833,140.2167,35,13.2,62,1016.4,N,1.6
47423,MURORAN,JAPAN,42.3,140.9667,49,16.9,41,1016.0,W,3.1
47424,TOMAKOMAI,JAPAN,42.6167,141.5333,7,16.1,55,1015.4,SE,2.6
47426,URAKAWA,JAPAN,42.15,142.7667,38,11.1,85,1015.5,W,3.6
47428,ESASHI,JAPAN,41.8667,140.1167,12,13.6,79,1017.6,SW,2.1
47430,HAKODATE,JAPAN,41.8167,140.75,43,18.2,37,1016.5,W,4.6
47433,KUTCHAN,JAPAN,42.9,140.75,188,16.0,31,1015.8,NW,5.1
47435,MOMBETSU,JAPAN,44.3333,143.35,17,13.7,37,1014.0,NW,4.6
47440,HIROO,JAPAN,42.2833,143.3167,34,18.9,44,1012.9,W,5.7
47512,OFUNATO,JAPAN,39.05,141.7,38,22.9,25,1017.7,N,3.1
47520,SHINJO,JAPAN,38.75,140.3,102,21.0,22,1019.1,NW,5.1
47570,WAKAMATSU,JAPAN,37.4833,139.9,213,23.6,26,1018.4,NW,3.6
47574,FUKAURA,JAPAN,40.6333,139.9167,67,14.5,76,1018.7,S,4.1
47575,AOMORI,JAPAN,40.8167,140.7667,4,19.2,48,1017.4,SW,7.2
47576,MUTSU,JAPAN,41.2833,141.2,4,17.1,53,1017.1,W,4.6
47581,HACHINOHE,JAPAN,40.5167,141.5167,28,19.2,52,1017.4,W,8.8
47582,AKITA,JAPAN,39.7167,140.0833,21,17.7,38,1020.0,SW,4.6
47584,MORIOKA,JAPAN,39.6833,141.15,155,19.3,40,1018.8,NW,4.6
47585,MIYAKO,JAPAN,39.6333,141.95,47,22.0,33,1017.1,W,3.1
47587,SAKATA,JAPAN,38.9,139.8333,4,20.1,30,1019.7,W,3.1
47588,YAMAGATA,JAPAN,38.25,140.3333,153,23.2,23,1018.6,SW,3.6
47590,SENDAI,JAPAN,38.25,140.8833,43,21.1,44,1018.7,SE,4.1
47592,ISHINOMAKI,JAPAN,38.4167,141.2833,42,18.2,61,1019.3,SE,3.6
47595,FUKUSHIMA,JAPAN,37.75,140.4667,69,25.0,21,1017.9,NW,4.1
47597,SHIRAKAWA,JAPAN,37.1167,140.2,356,21.3,33,1018.3,SW,5.7
47598,ONAHAMA,JAPAN,36.9333,140.9,5,19.9,55,1019.4,S,7.2
47600,WAJIMA,JAPAN,37.3833,136.8833,6,23.2,22,1018.9,SW,5.7
47602,AIKAWA,JAPAN,38.0167,138.2333,7,19.0,27,1019.6,W,2.1
47604,NIIGATA,JAPAN,37.8833,139.0167,5,23.5,24,1019.3,SW,2.1
47605,KANAZAWA,JAPAN,36.5833,136.6333,33,22.7,26,1019.4,W,3.6
47606,FUSHIKI,JAPAN,36.7833,137.05,13,19.8,50,1019.1,N,2.6
47607,TOYAMA,JAPAN,36.7,137.2,17,22.3,34,1019.2,N,2.6
47610,NAGANO,JAPAN,36.65,138.1833,419,24.5,26,1016.3,N,3.6
47612,TAKADA,JAPAN,37.1,138.2333,14,22.8,28,1019.3,N,3.1
47615,UTSUNOMIYA,JAPAN,36.5333,139.8667,140,23.5,26,1019.3,S,7.7
47616,FUKUI,JAPAN,36.05,136.2167,17,25.7,34,1019.1,SW,3.6
47617,TAKAYAMA,JAPAN,36.15,137.25,561,23.7,25,1017.4,S,4.6
47618,MATSUMOTO,JAPAN,36.2333,137.9667,611,25.1,23,1015.0,S,4.6
47620,SUWA,JAPAN,36.0333,138.1,762,22.5,25,1016.1,SE,4.1
47622,KARUIZAWA,JAPAN,36.3333,138.5333,1004,18.7,35,1547 m (850) ,E,3.6
47624,MAEBASHI,JAPAN,36.4,139.05,114,25.3,22,1018.4,SE,3.6
47626,KUMAGAYA,JAPAN,36.15,139.3667,31,24.9,26,1019.0,SE,4.6
47629,MITO,JAPAN,36.3667,140.4667,31,23.7,32,1019.7,SW,4.1
47631,TSURUGA,JAPAN,35.65,136.05,12,24.2,37,1020.0,S,7.7
47632,GIFU,JAPAN,35.4,136.75,17,23.1,36,1021.6,S,4.6
47636,NAGOYA,JAPAN,35.1667,136.95,56,22.9,37,1021.6,S,5.1
47637,IIDA,JAPAN,35.5167,137.8167,528,24.4,27,1017.5,W,3.1
47638,KOFU,JAPAN,35.6667,138.55,281,24.6,36,1018.2,SW,5.7
47640,KAWAGUCHIKO,JAPAN,35.5,138.75,861,19.6,43,1557 m (850) ,NW,4.6
47641,CHICHIBU,JAPAN,35.9833,139.0667,233,24.3,28,1017.5,E,5.1
47648,CHOSHI,JAPAN,35.7333,140.85,28,19.7,49,1021.5,S,5.1
47649,UENO,JAPAN,34.75,136.1333,160,24.7,40,1019.7,E,3.6
47651,TSU,JAPAN,34.7333,136.5167,18,20.7,68,1021.8,E,6.2
47653,IRAKO,JAPAN,34.6167,137.0833,7,20.8,51,1022.3,S,3.1
47654,HAMAMATSU,JAPAN,34.75,137.7,47,21.3,57,1022.3,SW,4.6
47655,OMAEZAKI,JAPAN,34.6,138.2,46,20.3,68,1022.3,SW,3.6
47656,SHIZUOKA,JAPAN,34.9667,138.4,15,21.3,63,1021.2,S,4.1
47657,MISHIMA,JAPAN,35.1,138.9167,21,21.9,46,1021.7,W,5.1
47662,TOKYO,JAPAN,35.6833,139.75,24,21.5,44,1020.5,SE,6.7
47663,OWASE,JAPAN,34.0667,136.1833,17,20.5,62,1021.7,NE,5.1
47666,IROZAKI,JAPAN,34.6,138.8333,53,20.9,62,1022.1,SW,4.1
47668,AJIRO,JAPAN,35.0333,139.0833,67,22.6,43,1020.9,W,3.6
47670,YOKOHAMA,JAPAN,35.4333,139.65,42,21.6,35,1020.9,S,6.2
47672,TATEYAMA,JAPAN,34.9833,139.85,7,21.2,40,1021.9,S,4.6
47674,KATSUURA,JAPAN,35.15,140.3,13,19.7,59,1022.0,SW,5.7
47675,OSHIMA,JAPAN,34.7333,139.35,75,20.2,56,1021.8,SW,5.7
47677,MIYAKEJIMA,JAPAN,34.1167,139.5167,39,20.8,53,1022.2,W,3.6
47678,HACHIJOJIMA,JAPAN,33.1167,139.7667,152,20.2,55,1022.3,NE,3.1
47682,CHIBA,JAPAN,35.6,140.1,6,21.9,38,1021.0,SW,6.7
47684,YOKKAICHI,JAPAN,34.9333,136.5667,57,21.1,59,1021.8,SE,3.1
47690,NIKKO,JAPAN,36.7333,139.5,1294,15.0,47,1549 m (850) ,E,2.6
47740,SAIGO,JAPAN,36.2,133.3333,28,22.5,36,1018.0,W,6.2
47741,MATSUE,JAPAN,35.45,133.05,22,-,-,-,W,6.7
47742,SAKAI,JAPAN,35.5333,133.2333,3,25.4,36,1018.4,SE,2.1
47744,YONAGO,JAPAN,35.4333,133.3333,8,24.0,41,1018.5,E,3.1
47746,TOTTORI,JAPAN,35.4833,134.2333,15,22.4,28,1019.3,NW,6.2
47747,TOYOOKA,JAPAN,35.5333,134.8167,5,25.8,30,1018.5,N,2.6
47750,MAIZURU,JAPAN,35.45,135.3167,4,25.8,22,1019.3,W,1.6
47754,HAGI,JAPAN,34.4,131.4,3,22.2,48,1019.0,N,3.6
47755,HAMADA,JAPAN,34.8833,132.0667,20,23.6,39,1019.1,SW,3.1
47756,TSUYAMA,JAPAN,35.05,134.0,147,23.8,34,1019.3,SE,3.1
47759,KYOTO,JAPAN,35.0,135.7167,52,24.7,15,1020.3,S,4.1
47761,HIKONE,JAPAN,35.2667,136.2333,92,20.9,57,1020.5,NW,2.1
47762,SHIMONOSEKI,JAPAN,33.9333,130.9167,19,22.3,40,1019.7,SE,2.1
47765,HIROSHIMA,JAPAN,34.3833,132.45,54,23.9,29,1019.9,SW,2.1
47766,KURE,JAPAN,34.2333,132.55,5,22.8,36,1020.1,W,3.1
47767,FUKUYAMA,JAPAN,34.4333,133.2333,3,22.7,47,1020.2,S,2.1
47768,OKAYAMA,JAPAN,34.6833,133.9167,6,22.4,36,1020.6,SE,5.1
47769,HIMEJI,JAPAN,34.8333,134.6667,39,20.7,41,1021.3,S,3.1
47770,KOBE,JAPAN,34.6833,135.2,30,19.7,46,1021.8,SW,4.1
47772,OSAKA,JAPAN,34.6667,135.5167,83,20.4,38,1021.2,SW,2.6
47776,SUMOTO,JAPAN,34.3333,134.9,112,19.9,49,1020.9,S,9.8
47777,WAKAYAMA,JAPAN,34.2167,135.15,18,20.6,53,1021.6,SW,7.2
47778,SHIONOMISAKI,JAPAN,33.45,135.75,69,19.6,61,1022.6,SW,2.1
47780,NARA,JAPAN,34.6833,135.8167,108,24.2,25,1020.5,W,2.6
47784,YAMAGUCHI,JAPAN,34.15,131.45,19,24.6,28,1019.7,S,3.1
47800,IZUHARA,JAPAN,34.1833,129.2833,4,22.6,35,1019.3,SW,5.7
47805,HIRADO,JAPAN,33.35,129.55,58,19.7,71,1019.7,S,5.1
47807,FUKUOKA,JAPAN,33.5667,130.3667,15,23.6,56,1019.3,N,4.6
47809,IIZUKA,JAPAN,33.65,130.6833,37,26.0,31,1018.8,N,3.1
47812,SASEBO,JAPAN,33.15,129.7167,5,23.7,40,1019.7,SW,3.1
47813,SAGA,JAPAN,33.25,130.3,33,26.5,32,1019.0,S,4.6
47814,HITA,JAPAN,33.3167,130.9167,84,28.2,25,1018.1,NW,3.6
47815,OITA,JAPAN,33.2333,131.6167,13,23.1,47,1019.1,NW,4.1
47817,NAGASAKI,JAPAN,32.7333,129.8667,35,22.9,52,1020.0,SW,4.1
47818,UNZENDAKE,JAPAN,32.7333,130.25,679,19.7,41,1018.9,W,2.1
47819,KUMAMOTO,JAPAN,32.8,130.7,39,26.0,35,1019.0,SW,3.1
47822,NOBEOKA,JAPAN,32.5667,131.65,21,23.0,34,1020.8,E,3.6
47823,AKUNE,JAPAN,32.0167,130.2,42,21.9,69,1020.2,W,4.1
47824,HITOYOSHI,JAPAN,32.2167,130.75,147,26.3,39,1018.3,W,1.0
47827,KAGOSHIMA,JAPAN,31.55,130.5333,31,24.4,48,1020.0,SE,3.6
47829,MIYAKONOJO,JAPAN,31.7167,131.0667,155,24.4,50,1019.5,S,4.6
47830,MIYAZAKI,JAPAN,31.9333,131.4,15,23.0,55,1020.6,E,5.1
47831,MAKURAZAKI,JAPAN,31.2667,130.2833,31,22.4,62,1020.5,S,3.6
47835,ABURATSU,JAPAN,31.5667,131.4,14,23.9,59,1020.9,SE,3.1
47836,YAKUSHIMA,JAPAN,30.3833,130.65,38,24.0,57,1020.4,SE,5.1
47837,TANEGASHIMA,JAPAN,30.7167,130.9667,37,23.5,62,1020.6,SE,3.6
47838,USHIBUKA,JAPAN,32.1833,130.0167,15,22.6,59,1020.3,W,3.6
47843,FUKUE,JAPAN,32.6833,128.8167,26,21.7,62,1019.8,S,3.1
47887,MATSUYAMA,JAPAN,33.8333,132.7667,34,22.7,41,1020.2,N,2.1
47890,TADOTSU,JAPAN,34.2667,133.75,5,19.4,60,1020.4,N,2.1
47891,TAKAMATSU,JAPAN,34.3167,134.05,13,23.3,31,1020.5,E,3.1
47892,UWAJIMA,JAPAN,33.2167,132.55,14,24.0,53,1020.4,NW,4.1
47893,KOCHI,JAPAN,33.5667,133.5333,4,21.9,55,1021.9,S,3.6
47895,TOKUSHIMA,JAPAN,34.0667,134.5667,6,21.8,45,1020.8,SE,6.2
47897,SUKUMO,JAPAN,32.9167,132.6833,10,23.6,55,1020.9,W,4.1
47898,SHIMIZU,JAPAN,32.7167,133.0,33,22.5,65,1021.5,E,2.6
47899,MUROTOMISAKI,JAPAN,33.25,134.1667,186,19.3,65,1022.0,SE,3.1
47909,NAZE,JAPAN,28.3667,129.4833,7,24.9,51,1019.5,SE,3.1
47912,YONAGUNIJIMA,JAPAN,24.4667,123.0,36,27.0,64,1016.2,SE,5.7
47917,IRIOMOTEJIMA,JAPAN,24.4167,123.75,11,26.5,63,1016.2,E,4.6
47918,ISHIGAKIJIMA,JAPAN,24.3333,124.15,14,27.2,57,1016.7,E,4.1
47927,MIYAKOJIMA,JAPAN,24.7833,125.2667,41,25.4,60,1017.0,E,3.1
47929,KUMEJIMA,JAPAN,26.3333,126.8,6,24.9,55,1018.0,SE,4.1
47936,NAHA,JAPAN,26.2,127.6833,50,24.9,59,1017.8,E,6.7
47940,NAGO,JAPAN,26.5833,127.95,7,25.2,58,1018.0,S,2.6
47942,OKINOERABU,JAPAN,27.4167,128.7,29,24.0,62,1019.1,E,4.6
47945,MINAMIDAITOJIMA,JAPAN,25.8167,131.2167,20,24.4,65,1018.6,NE,6.2
47971,CHICHIJIMA,JAPAN,27.0833,142.1833,8,23.2,79,1020.1,NE,4.6
47991,MINAMITORISHIMA,JAPAN,24.2833,153.9833,8,27.7,80,1018.2,NE,2.6
