ID,City,Country,Latitude,Longitude,Height,Temperature,Humidity,Pressure,Wind Direction,Wind Speed
20087,MGMS IM. G.F. USHAKOVA,RUSSIAN FEDERATION,79.55,90.5667,8,-0.8,97,1018.7,N,7.0
20292,GMO IM.E.K. FEDOROVA,RUSSIAN FEDERATION,77.7,104.2833,15,1.0,100,1016.9,W,3.0
20891,HATANGA,RUSSIAN FEDERATION,71.9667,102.45,32,6.2,86,1017.5,E,4.0
21432,OSTROV KOTEL'NYJ,RUSSIAN FEDERATION,76.0,137.8667,14,3.9,98,1013.4,W,6.0
21608,ANABAR,RUSSIAN FEDERATION,73.2167,113.5,13,6.5,92,1018.7,W,5.0
21636,KIGILYAH,RUSSIAN FEDERATION,73.3333,139.8667,24,3.9,91,1017.6,NW,5.0
21721,IM.YU.A. HABAROVA,RUSSIAN FEDERATION,72.4,126.35,19,8.3,76,1019.9,S,2.0
21908,DZALINDA,RUSSIAN FEDERATION,70.1333,113.9667,61,9.5,69,1021.6,calm,-
21931,JUBILEJNAJA,RUSSIAN FEDERATION,70.7667,136.2167,24,8.1,76,1019.4,NW,3.0
21946,CHOKURDAH,RUSSIAN FEDERATION,70.6167,147.8833,61,6.8,91,1017.2,N,2.0
21978,VAL' KARKAJ,RUSSIAN FEDERATION,70.0833,170.9167,5,17.4,90,1004.1,SW,15.0
21982,OSTROV VRANGELJA,RUSSIAN FEDERATION,70.9833,-178.65,4,2.8,97,1008.7,S,1.0
23884,BOR,RUSSIAN FEDERATION,61.5667,90.0167,57,11.8,96,1007.7,calm,-
24143,DZARDZAN,RUSSIAN FEDERATION,68.7333,124.0,38,13.0,62,1018.5,NE,2.0
24219,YAROL'IN,RUSSIAN FEDERATION,67.1333,108.5333,235,9.0,80,1017.2,NE,2.0
24263,BATAGAJ,RUSSIAN FEDERATION,67.65,134.6833,214,9.0,68,1016.2,NW,4.0
24477,IEMA,RUSSIAN FEDERATION,65.3,135.8,674,11.8,81,1011.3,NW,8.0
24507,TURA,RUSSIAN FEDERATION,64.2667,100.2167,190,15.8,76,1007.8,calm,-
24525,HABARDINO,RUSSIAN FEDERATION,64.6,112.5167,251,6.7,80,1015.7,calm,-
24643,HATYRYK-HOMO,RUSSIAN FEDERATION,63.95,124.8333,76,12.4,84,1012.2,N,1.0
24763,KREST-HAL'DZHAJ,RUSSIAN FEDERATION,62.8167,134.4333,114,15.3,98,1010.1,calm,-
24790,SUSUMAN,RUSSIAN FEDERATION,62.7833,148.1667,654,12.1,100,1009.4,S,2.0
24802,STRELKA CHUNYA,RUSSIAN FEDERATION,61.7333,102.8,358,16.5,69,1005.4,NE,1.0
24826,DOROZHNYJ,RUSSIAN FEDERATION,61.6167,114.6167,353,14.1,90,1009.2,NE,2.0
24967,TEGYULTYA,RUSSIAN FEDERATION,60.4667,130.0,171,10.0,97,1010.5,NW,1.0
25121,KOLYMSKAYA,RUSSIAN FEDERATION,68.7333,158.7167,12,9.8,92,1010.0,N,7.0
25248,ILIRNEJ,RUSSIAN FEDERATION,67.25,167.9667,353,15.7,85,1009.7,S,1.0
25399,MYS UELEN,RUSSIAN FEDERATION,66.15,-169.8333,7,12.8,83,1019.3,calm,-
25400,ZYRYANKA,RUSSIAN FEDERATION,65.7333,150.9,42,15.4,76,1010.9,N,7.0
25563,ANADYR',RUSSIAN FEDERATION,64.7833,177.5667,60,13.9,79,1016.9,SE,6.0
25627,LABAZNAYA,RUSSIAN FEDERATION,63.3,158.5,709,12.2,86,1010.5,S,1.0
25904,MADAUN,RUSSIAN FEDERATION,60.6,150.7,521,10.9,100,1011.0,E,1.0
25941,CHEMURNAUT,RUSSIAN FEDERATION,60.7333,163.0167,14,9.3,89,1012.7,calm,-
29282,BOGUCANY,RUSSIAN FEDERATION,58.3833,97.45,133,18.5,95, 997.9,SW,1.0
29866,MINUSINSK,RUSSIAN FEDERATION,53.7167,91.7,254,16.0,92,1006.7,calm,-
30054,VITIM,RUSSIAN FEDERATION,59.45,112.5833,190,19.7,79,1002.2,N,2.0
30198,SUON-TIT,RUSSIAN FEDERATION,58.0667,123.7167,416,12.5,95,1009.1,calm,-
30337,KAZACHINSK,RUSSIAN FEDERATION,56.3167,107.6167,356,18.1,95,1001.4,calm,-
30499,TYNDA,RUSSIAN FEDERATION,55.1833,124.6667,528,16.8,79,1006.6,W,1.0
30612,BALAGANSK,RUSSIAN FEDERATION,54.0,103.0667,426,18.3,79,1002.6,W,3.0
30650,ROMANOVKA,RUSSIAN FEDERATION,53.2,112.7833,922,16.8,92,1005.0,SW,1.0
30965,BORZYA,RUSSIAN FEDERATION,50.4,116.5167,675,17.7,82,1004.3,NE,1.0
31152,NEL' KAN,RUSSIAN FEDERATION,57.65,136.15,318,14.2,98,1008.6,N,2.0
31174,BOL'SHOJ SHANTAR,RUSSIAN FEDERATION,54.8333,137.5333,9,11.6,86,1008.1,NE,3.0
31371,CHERNJAEVO,RUSSIAN FEDERATION,52.7833,126.0,209,15.3,98,1005.4,NW,1.0
31416,IM POLINY OSIPENKO,RUSSIAN FEDERATION,52.4167,136.5,70,14.0,100,1006.2,N,3.0
31510,BLAGOVESCETNSK,RUSSIAN FEDERATION,50.2667,127.4667,169,18.3,92,1003.4,W,3.0
31707,EKATERINO-NIKOL'SKOE,RUSSIAN FEDERATION,47.7333,130.9667,72,19.8,93,-,NE,1.0
31801,GVASJUGI,RUSSIAN FEDERATION,47.6667,136.1833,180,16.2,87,1000.3,calm,-
31878,KIROVSKIJ,RUSSIAN FEDERATION,45.1,133.5,97,20.6,92, 999.9,N,2.0
31989,PREOBRAZHENIE,RUSSIAN FEDERATION,42.9,133.9,42,21.5,98, 998.9,calm,-
32069,PIL'VO,RUSSIAN FEDERATION,50.05,142.1667,4,13.3,93, 999.6,NW,3.0
32165,JUZHNO-KURIL'SK,RUSSIAN FEDERATION,44.0167,145.8667,45,18.6,98, 997.0,-,-
32333,OZERNOJ (MYS),RUSSIAN FEDERATION,57.65,163.2333,9,9.8,90,1013.2,W,1.0
32477,SOBOLEVO,RUSSIAN FEDERATION,54.3,155.9167,25,10.7,99,1006.3,NE,2.0
32594,OZERNAJA,RUSSIAN FEDERATION,51.4833,156.4833,28,13.0,82,1001.7,E,15.0
32618,OSTROV BERINGA,RUSSIAN FEDERATION,55.2,165.9833,17,8.6,93,1011.7,N,3.0
36090,HOVU-AKSY,RUSSIAN FEDERATION,51.1167,93.6833,1042,10.6,100,-,N,1.0
44203,RINCHINLHUMBE,MONGOLIA,51.1167,99.6667,1583,11.4,85,1011.3,W,2.0
44207,HATGAL,MONGOLIA,50.4333,100.15,1668,8.9,79,1012.5,NW,2.0
44212,ULAANGOM,MONGOLIA,49.8,92.0833,939,15.4,71,1001.2,S,1.0
44213,BARUUNTURUUN,MONGOLIA,49.65,94.4,1232,14.5,65,1009.4,S,4.0
44215,OMNO-GOBI,MONGOLIA,49.0167,91.7167,1590,15.2,62,1009.9,SW,2.0
44218,HOVD,MONGOLIA,48.0167,91.5667,1405,14.8,87,1009.9,SW,2.0
44225,TOSONTSENGEL,MONGOLIA,48.7333,98.2,1723,11.8,73,1011.8,E,1.0
44230,TARIALAN,MONGOLIA,49.5667,102.0,1235,14.1,71,1008.3,N,5.0
44231,MUREN,MONGOLIA,49.6333,100.1667,1283,14.5,74,1007.8,E,2.0
44232,HUTAG,MONGOLIA,49.3833,102.7,938,15.4,81,1004.4,E,2.0
44237,ERDENEMANDAL,MONGOLIA,48.5333,101.3833,1509,12.2,82,1009.3,SW,4.0
44239,BULGAN,MONGOLIA,48.8,103.55,1208,13.5,88,1006.5,W,3.0
44241,BARUUNHARAA,MONGOLIA,48.9167,106.0667,807,18.0,82,1003.6,E,1.0
44256,DASHBALBAR,MONGOLIA,49.55,114.4,705,18.2,100,1004.8,W,2.0
44259,CHOIBALSAN,MONGOLIA,48.0833,114.55,747,19.1,100,1002.2,NE,1.0
44265,BAITAG,MONGOLIA,46.1167,91.4667,1186,16.5,49,1006.7,calm,-
44272,ULIASTAI,MONGOLIA,47.75,96.85,1759,12.6,65,1009.4,SE,2.0
44275,BAYANBULAG,MONGOLIA,46.8333,98.0833,2255,12.5,53,1011.1,NW,1.0
44277,ALTAI,MONGOLIA,46.4,96.25,2181,11.9,82,1011.8,calm,-
44282,TSETSERLEG,MONGOLIA,47.45,101.4667,1691,14.1,67,1008.0,NW,2.0
44284,GALUUT,MONGOLIA,46.7,100.1333,2126,13.7,50,1008.7,N,5.0
44285,HUJIRT,MONGOLIA,46.9,102.7667,1662,14.9,81,1006.2,S,2.0
44287,BAYANHONGOR,MONGOLIA,46.1333,100.6833,1859,15.3,63,1007.0,NE,2.0
44288,ARVAIHEER,MONGOLIA,46.2667,102.7833,1813,15.9,59,1007.0,N,4.0
44292,ULAANBAATAR,MONGOLIA,47.9167,106.8667,1729,17.4,69,1005.1,NE,2.0
44294,MAANTI,MONGOLIA,47.3,107.4833,1430,15.4,95,1006.2,SE,4.0
44298,CHOIR,MONGOLIA,46.45,108.2167,1286,16.5,93,1004.9,E,4.0
44302,BAYAN-OVOO,MONGOLIA,47.7833,112.1167,926,18.8,92,1003.3,NE,2.0
44304,UNDERKHAAN,MONGOLIA,47.3167,110.6333,1033,19.9,90,1002.3,NE,3.0
44305,BARUUN-URT,MONGOLIA,46.6833,113.2833,981,20.4,100,1002.0,W,2.0
44313,KHALKH-GOL,MONGOLIA,47.6167,118.6167,688,16.5,87,1003.1,SE,1.0
44314,MATAD,MONGOLIA,47.1667,115.6333,907,19.3,92,1003.4,E,3.0
44317,ERDENETSAGAAN,MONGOLIA,45.9,115.3667,1076,19.1,83,1001.6,calm,-
44336,SAIKHAN-OVOO,MONGOLIA,45.45,103.9,1316,18.8,63,1004.0,E,7.0
44341,MANDALGOBI,MONGOLIA,45.7667,106.2833,1393,16.5,81,1006.0,N,1.0
44347,TSOGT-OVOO,MONGOLIA,44.4167,105.3167,1298,20.4,68,1002.7,calm,-
44352,BAYANDELGER,MONGOLIA,45.7333,112.3667,1101,21.2,84,1000.3,calm,-
44354,SAINSHAND,MONGOLIA,44.9,110.1167,938,25.1,47,1000.1,N,2.0
44358,ZAMYN-UUD,MONGOLIA,43.7333,111.9,964,24.1,65, 999.4,E,3.0
44373,DALANZADGAD,MONGOLIA,43.5833,104.4167,1465,18.2,61,1003.8,S,2.0
45007,HONG KONG INTERNATIONAL AIRPORT,"HONG KONG, CHINA",22.3,113.9167,7,29.7,80, 999.0,SW,4.0
45032,TA KWU LING,"HONG KONG, CHINA",22.5167,114.15,14,27.3,93, 998.8,calm,-
45035,LAU FAU SHAN,"HONG KONG, CHINA",22.4667,113.9833,35,28.7,94, 999.0,W,5.0
45039,SHA TIN,"HONG KONG, CHINA",22.4,114.2,12,29.2,87, 999.4,SW,2.0
45044,CHEUNG CHAU,"HONG KONG, CHINA",22.2,114.0167,79,27.7,97, 999.5,SW,5.0
47003,SENBONG,DEMOCRATIC PEOPLE'S REPUBLIC OF KOREA,42.3167,130.4,3,-,-,1001.4,calm,-
47005,SAMJIYON,DEMOCRATIC PEOPLE'S REPUBLIC OF KOREA,41.8167,128.3,1381,15.8,98,-,S,2.0
47008,CHONGJIN,DEMOCRATIC PEOPLE'S REPUBLIC OF KOREA,41.7833,129.8167,43,-,-,1001.7,N,1.0
47014,CHUNGGANG,DEMOCRATIC PEOPLE'S REPUBLIC OF KOREA,41.7833,126.8833,331,21.6,90,1006.1,calm,-
47016,HYESAN,DEMOCRATIC PEOPLE'S REPUBLIC OF KOREA,41.4,128.1667,714,17.9,95,1004.4,calm,-
47020,KANGGYE,DEMOCRATIC PEOPLE'S REPUBLIC OF KOREA,40.9667,126.6,306,23.0,94,1013.3,calm,-
47022,PUNGSAN,DEMOCRATIC PEOPLE'S REPUBLIC OF KOREA,40.8167,128.15,1200,17.4,85,-,calm,-
47025,KIMCHAEK,DEMOCRATIC PEOPLE'S REPUBLIC OF KOREA,40.6667,129.2,23,-,-,1001.3,calm,-
47028,SUPUNG,DEMOCRATIC PEOPLE'S REPUBLIC OF KOREA,40.45,124.9333,76,23.2,98,1004.3,calm,-
47031,CHANGJIN,DEMOCRATIC PEOPLE'S REPUBLIC OF KOREA,40.3667,127.25,1080,17.6,90,-,calm,-
47035,SINUIJU,DEMOCRATIC PEOPLE'S REPUBLIC OF KOREA,40.1,124.3833,7,23.9,99,1002.1,W,2.0
47037,KUSONG,DEMOCRATIC PEOPLE'S REPUBLIC OF KOREA,39.9833,125.25,99,23.8,98, 998.6,SE,2.0
47039,HUICHON,DEMOCRATIC PEOPLE'S REPUBLIC OF KOREA,40.1667,126.25,155,23.8,90,1003.0,calm,-
47041,HAMHEUNG,DEMOCRATIC PEOPLE'S REPUBLIC OF KOREA,39.9333,127.55,22,24.2,86,1000.7,NE,2.0
47046,SINPO,DEMOCRATIC PEOPLE'S REPUBLIC OF KOREA,40.0333,128.1833,19,-,-, 999.1,SW,1.0
47050,ANJU,DEMOCRATIC PEOPLE'S REPUBLIC OF KOREA,39.6167,125.65,27,23.6,89,1002.5,calm,-
47052,YANGDOK,DEMOCRATIC PEOPLE'S REPUBLIC OF KOREA,39.2167,126.65,279,23.1,94,1005.6,NW,1.0
47055,WONSAN,DEMOCRATIC PEOPLE'S REPUBLIC OF KOREA,39.1833,127.4333,36,25.7,81,1002.9,calm,-
47058,PYONGYANG,DEMOCRATIC PEOPLE'S REPUBLIC OF KOREA,39.0333,125.7833,36,25.0,93,1003.6,S,2.0
47060,NAMPO,DEMOCRATIC PEOPLE'S REPUBLIC OF KOREA,38.7167,125.3833,47,24.3,95,1003.1,E,2.0
47061,CHANGJON,DEMOCRATIC PEOPLE'S REPUBLIC OF KOREA,38.7333,128.1833,34,-,-,1005.2,calm,-
47065,SARIWON,DEMOCRATIC PEOPLE'S REPUBLIC OF KOREA,38.5167,125.7667,52,24.9,92,1003.6,SE,3.0
47067,SINGYE,DEMOCRATIC PEOPLE'S REPUBLIC OF KOREA,38.5,126.5333,97,23.0,81,-,calm,-
47068,RYONGYON,DEMOCRATIC PEOPLE'S REPUBLIC OF KOREA,38.15,124.8833,6,24.5,91,1004.3,SE,3.0
47069,HAEJU,DEMOCRATIC PEOPLE'S REPUBLIC OF KOREA,38.0333,125.7,81,24.8,91,1004.1,E,1.0
47070,KAESONG,DEMOCRATIC PEOPLE'S REPUBLIC OF KOREA,37.9667,126.5667,70,23.7,95,1004.4,calm,-
47075,PYONGGANG,DEMOCRATIC PEOPLE'S REPUBLIC OF KOREA,38.4167,127.2833,352,23.2,86,1006.1,calm,-
47090,SOKCHO,REPUBLIC OF KOREA,38.25,128.55,19,29.2,59,1002.5,SW,2.1
47093,Bukchuncheon:,REPUBLIC OF KOREA,37.9333,127.75,95,24.1,96,1005.0,N,0.5
47095,CHEORWON,REPUBLIC OF KOREA,38.1333,127.3,155,23.6,98,1004.5,NE,0.5
47097,ICHEON,REPUBLIC OF KOREA,37.25,127.4833,79,23.5,99,1005.7,W,0.5
47098,DONGDUCHEON,REPUBLIC OF KOREA,37.9,127.05,110,24.1,99,1003.8,E,0.5
47099,PAJU,REPUBLIC OF KOREA,37.8833,126.75,30,24.3,99,1004.4,S,1.0
47100,DAEGWALLYEONG,REPUBLIC OF KOREA,37.6667,128.7167,773,21.8,89,1004.7,W,5.1
47101,CHUNCHEON,REPUBLIC OF KOREA,37.9,127.7333,78,23.8,92,1004.6,N,0.5
47102,BAENGNYEONGDO,REPUBLIC OF KOREA,37.95,124.6167,146,23.7,96,1001.3,S,3.1
47104,BUKGANGNEUNG,REPUBLIC OF KOREA,37.8,128.85,80,25.6,75,1002.7,S,0.5
47105,GANGNEUNG,REPUBLIC OF KOREA,37.75,128.8833,27,29.4,62,1003.1,SW,3.1
47106,DONGHAE,REPUBLIC OF KOREA,37.5,129.1167,41,25.6,75,1003.7,S,1.6
47108,SEOUL,REPUBLIC OF KOREA,37.5667,126.95,87,26.1,92,1003.7,S,2.1
47112,INCHEON,REPUBLIC OF KOREA,37.4667,126.6167,69,25.7,96,1004.1,SW,2.6
47114,WONJU,REPUBLIC OF KOREA,37.3333,127.9333,150,24.0,93,1005.7,W,0.5
47115,ULLEUNGDO,REPUBLIC OF KOREA,37.4667,130.8833,224,26.3,85,1003.8,W,7.2
47119,SUWON,REPUBLIC OF KOREA,37.2667,126.9833,37,24.9,96,1004.7,E,1.6
47121,YEONGWOL,REPUBLIC OF KOREA,37.1667,128.45,241,23.3,97,1006.3,W,1.0
47127,CHUNGJU,REPUBLIC OF KOREA,36.9667,127.95,116,24.7,95,1004.4,calm,-
47129,SEOSAN,REPUBLIC OF KOREA,36.7667,126.4833,30,26.1,95,1004.6,S,2.6
47130,ULJIN,REPUBLIC OF KOREA,36.9833,129.4,51,27.3,72,1004.4,SW,2.6
47131,CHEONGJU,REPUBLIC OF KOREA,36.6333,127.4333,58,26.5,86,1004.9,calm,-
47133,DAEJEON,REPUBLIC OF KOREA,36.3667,127.3667,69,25.6,92,1005.4,S,1.6
47135,CHUPUNGNYEONG,REPUBLIC OF KOREA,36.2167,127.9833,245,23.2,93,1005.7,N,0.5
47136,ANDONG,REPUBLIC OF KOREA,36.5667,128.7,141,24.7,97,1006.5,SE,0.5
47137,SANGJU,REPUBLIC OF KOREA,36.4,128.15,97,25.0,95,1004.9,N,0.5
47138,POHANG,REPUBLIC OF KOREA,36.0167,129.3667,3,24.8,81,1004.8,calm,-
47140,GUNSAN,REPUBLIC OF KOREA,36.0,126.75,24,26.2,92,1006.0,E,2.6
47143,DAEGU,REPUBLIC OF KOREA,35.8667,128.65,54,27.6,81,1005.7,NE,0.5
47145,CHEONAN,REPUBLIC OF KOREA,36.7667,127.1167,25,24.6,98,1005.4,N,0.5
47146,JEONJU,REPUBLIC OF KOREA,35.8333,127.1167,62,26.7,84,1005.6,E,1.0
47150,BORYEONG,REPUBLIC OF KOREA,36.3167,126.55,16,27.0,92,1004.4,S,3.1
47152,ULSAN,REPUBLIC OF KOREA,35.55,129.3167,35,27.0,77,1005.7,SW,3.6
47154,GUMI,REPUBLIC OF KOREA,36.1167,128.3167,50,25.4,91,1006.1,W,0.5
47155,CHANGWON,REPUBLIC OF KOREA,35.1667,128.5667,38,25.4,95,1006.2,N,1.6
47156,GWANGJU,REPUBLIC OF KOREA,35.1667,126.8833,73,27.3,81,1005.4,S,2.1
47157,GEOCHANG,REPUBLIC OF KOREA,35.6667,127.9,227,24.0,98,1006.1,N,0.5
47159,BUSAN,REPUBLIC OF KOREA,35.1,129.0167,70,23.0,96,1006.4,W,3.1
47162,TONGYEONG,REPUBLIC OF KOREA,34.8333,128.4333,33,26.4,90,1006.3,S,3.6
47165,MOKPO,REPUBLIC OF KOREA,34.8167,126.3667,39,27.6,90,1005.2,S,2.6
47168,YEOSU,REPUBLIC OF KOREA,34.7333,127.7333,65,26.8,95,1006.1,SW,2.6
47169,HEUKSANDO,REPUBLIC OF KOREA,34.6833,125.45,77,25.4,98,1004.5,S,4.6
47170,WANDO,REPUBLIC OF KOREA,34.3833,126.7,36,26.1,93,1005.9,S,0.5
47171,JEONGEUP,REPUBLIC OF KOREA,35.55,126.85,46,27.1,88,1005.4,SW,0.5
47172,GOCHANG,REPUBLIC OF KOREA,35.3333,126.5833,56,27.7,86,1005.2,S,2.1
47173,NAMWON,REPUBLIC OF KOREA,35.4167,127.3833,133,25.5,96,1006.2,NE,1.0
47174,SUNCHEON,REPUBLIC OF KOREA,35.0167,127.3667,166,24.1,97,1005.3,W,1.0
47177,Hongseong:,REPUBLIC OF KOREA,36.65,126.6833,25,27.0,98,1004.8,SW,1.6
47184,JEJU,REPUBLIC OF KOREA,33.5,126.5167,21,28.9,77,1004.8,E,0.5
47185,GOSAN,REPUBLIC OF KOREA,33.2833,126.15,75,27.3,94,1005.4,S,4.6
47188,SEONGSAN,REPUBLIC OF KOREA,33.3833,126.8667,19,27.9,94,1006.1,SW,1.6
47189,SEOGWIPO,REPUBLIC OF KOREA,33.2333,126.55,50,28.7,88,1006.0,W,1.0
47192,JINJU,REPUBLIC OF KOREA,35.15,128.0333,29,25.6,96,1005.6,S,0.5
47401,WAKKANAI,JAPAN,45.4,141.6667,11,18.5,95, 996.9,N,3.1
47402,KITAMIESASHI,JAPAN,44.9333,142.5833,8,18.9,100, 996.5,SE,1.6
47404,HABORO,JAPAN,44.35,141.7,9,21.4,100, 995.7,E,1.6
47405,OMU,JAPAN,44.5667,142.95,15,19.6,100, 996.8,W,0.5
47406,RUMOI,JAPAN,43.9333,141.6167,24,21.4,96, 995.2,NW,3.1
47407,ASAHIKAWA,JAPAN,43.75,142.3667,140,21.4,100, 995.8,NE,2.6
47409,ABASHIRI,JAPAN,44.0167,144.2667,43,20.9,96, 996.6,N,5.1
47411,OTARU,JAPAN,43.1667,141.0,26,23.5,94, 995.5,NW,0.5
47412,SAPPORO,JAPAN,43.05,141.3167,26,24.6,91, 996.0,S,1.6
47413,IWAMIZAWA,JAPAN,43.2,141.7833,51,24.0,97, 995.7,S,7.7
47417,OBIHIRO,JAPAN,42.9167,143.2,43,22.5,89, 996.3,E,1.0
47418,KUSHIRO,JAPAN,42.9833,144.3667,39,20.7,88, 996.8,SW,5.1
47420,NEMURO,JAPAN,43.3167,145.5833,27,21.8,92, 997.0,SW,5.7
47421,SUTTSU,JAPAN,42.7833,140.2167,35,22.8,97, 996.2,S,1.0
47423,MURORAN,JAPAN,42.3,140.9667,49,24.1,88, 997.6,SW,5.7
47424,TOMAKOMAI,JAPAN,42.6167,141.5333,7,23.5,91, 997.3,S,5.7
47426,URAKAWA,JAPAN,42.15,142.7667,38,23.4,92, 999.4,W,2.1
47428,ESASHI,JAPAN,41.8667,140.1167,12,24.2,91, 998.4,SW,11.3
47430,HAKODATE,JAPAN,41.8167,140.75,43,25.4,84, 998.7,SW,4.6
47433,KUTCHAN,JAPAN,42.9,140.75,188,22.6,92, 996.3,SW,4.6
47435,MOMBETSU,JAPAN,44.3333,143.35,17,20.5,96, 996.9,N,1.6
47440,HIROO,JAPAN,42.2833,143.3167,34,25.9,81, 997.9,W,3.1
47512,OFUNATO,JAPAN,39.05,141.7,38,30.5,57,1002.7,NW,3.6
47520,SHINJO,JAPAN,38.75,140.3,102,27.1,76,1004.7,NW,2.1
47570,WAKAMATSU,JAPAN,37.4833,139.9,213,23.9,95,1006.6,W,0.5
47574,FUKAURA,JAPAN,40.6333,139.9167,67,24.8,95,1000.9,S,5.7
47575,AOMORI,JAPAN,40.8167,140.7667,4,27.7,73, 999.8,SW,4.6
47576,MUTSU,JAPAN,41.2833,141.2,4,26.5,78, 999.2,SW,4.6
47581,HACHINOHE,JAPAN,40.5167,141.5167,28,28.3,70,1000.4,SW,6.2
47582,AKITA,JAPAN,39.7167,140.0833,21,26.9,88,1003.7,SW,6.7
47584,MORIOKA,JAPAN,39.6833,141.15,155,27.7,72,1002.7,S,5.1
47585,MIYAKO,JAPAN,39.6333,141.95,47,30.1,57,1001.5,S,1.0
47587,SAKATA,JAPAN,38.9,139.8333,4,28.2,73,1004.7,SW,4.1
47588,YAMAGATA,JAPAN,38.25,140.3333,153,29.2,64,1004.4,S,4.1
47590,SENDAI,JAPAN,38.25,140.8833,43,30.3,59,1003.8,W,3.6
47592,ISHINOMAKI,JAPAN,38.4167,141.2833,42,26.1,85,1004.2,E,1.6
47595,FUKUSHIMA,JAPAN,37.75,140.4667,69,25.6,83,1005.0,W,1.0
47597,SHIRAKAWA,JAPAN,37.1167,140.2,356,22.3,100,1006.0,W,1.6
47598,ONAHAMA,JAPAN,36.9333,140.9,5,26.4,85,1004.9,N,1.6
47600,WAJIMA,JAPAN,37.3833,136.8833,6,27.9,79,1006.0,SW,5.1
47602,AIKAWA,JAPAN,38.0167,138.2333,7,27.6,82,1005.8,SE,2.6
47604,NIIGATA,JAPAN,37.8833,139.0167,5,27.3,80,1005.9,S,2.1
47605,KANAZAWA,JAPAN,36.5833,136.6333,33,24.0,88,1008.1,S,7.7
47606,FUSHIKI,JAPAN,36.7833,137.05,13,24.1,91,1007.3,E,1.6
47607,TOYAMA,JAPAN,36.7,137.2,17,25.1,93,1007.5,S,1.6
47610,NAGANO,JAPAN,36.65,138.1833,419,25.3,87,1006.6,SW,1.6
47612,TAKADA,JAPAN,37.1,138.2333,14,25.9,87,1006.2,S,1.0
47615,UTSUNOMIYA,JAPAN,36.5333,139.8667,140,26.5,83,1005.6,N,1.6
47616,FUKUI,JAPAN,36.05,136.2167,17,27.1,76,1008.3,N,4.1
47617,TAKAYAMA,JAPAN,36.15,137.25,561,22.5,87,1008.5,E,0.5
47618,MATSUMOTO,JAPAN,36.2333,137.9667,611,24.7,74,1006.8,S,1.0
47620,SUWA,JAPAN,36.0333,138.1,762,23.6,76,1008.0,NW,3.1
47622,KARUIZAWA,JAPAN,36.3333,138.5333,1004,22.1,83,-,W,2.6
47624,MAEBASHI,JAPAN,36.4,139.05,114,26.7,77,1005.7,W,2.1
47626,KUMAGAYA,JAPAN,36.15,139.3667,31,28.1,78,1005.6,W,2.1
47629,MITO,JAPAN,36.3667,140.4667,31,26.0,92,1005.4,N,1.0
47631,TSURUGA,JAPAN,35.65,136.05,12,29.4,71,1007.8,S,4.6
47632,GIFU,JAPAN,35.4,136.75,17,29.2,68,1007.8,NW,1.6
47636,NAGOYA,JAPAN,35.1667,136.95,56,29.1,74,1007.7,NE,1.0
47637,IIDA,JAPAN,35.5167,137.8167,528,23.5,84,1008.5,E,1.6
47638,KOFU,JAPAN,35.6667,138.55,281,26.5,83,1007.0,S,1.0
47639,FUJISAN,JAPAN,35.35,138.7167,3777,4.5,82,-,-,-
47640,KAWAGUCHIKO,JAPAN,35.5,138.75,861,21.9,96,-,N,1.0
47641,CHICHIBU,JAPAN,35.9833,139.0667,233,25.1,90,1006.3,SW,2.1
47648,CHOSHI,JAPAN,35.7333,140.85,28,25.6,95,1005.7,SW,3.6
47649,UENO,JAPAN,34.75,136.1333,160,25.3,86,1008.5,S,1.0
47651,TSU,JAPAN,34.7333,136.5167,18,29.7,68,1007.7,S,1.6
47653,IRAKO,JAPAN,34.6167,137.0833,7,26.5,88,1007.7,S,2.1
47654,HAMAMATSU,JAPAN,34.75,137.7,47,26.2,97,1007.7,SW,1.0
47655,OMAEZAKI,JAPAN,34.6,138.2,46,26.1,100,1007.7,W,4.1
47656,SHIZUOKA,JAPAN,34.9667,138.4,15,27.3,88,1007.1,N,1.0
47657,MISHIMA,JAPAN,35.1,138.9167,21,28.0,86,1006.7,W,3.6
47662,TOKYO,JAPAN,35.6833,139.75,24,28.4,86,1005.6,NW,3.1
47663,OWASE,JAPAN,34.0667,136.1833,17,31.1,60,1007.6,SW,2.1
47666,IROZAKI,JAPAN,34.6,138.8333,53,27.2,95,1007.2,W,5.7
47668,AJIRO,JAPAN,35.0333,139.0833,67,27.8,82,1006.2,S,2.1
47670,YOKOHAMA,JAPAN,35.4333,139.65,42,28.4,80,1005.7,W,3.1
47672,TATEYAMA,JAPAN,34.9833,139.85,7,27.9,84,1006.6,SW,7.2
47674,KATSUURA,JAPAN,35.15,140.3,13,24.9,95,1006.2,W,3.6
47675,OSHIMA,JAPAN,34.7333,139.35,75,27.1,94,1007.5,S,5.7
47677,MIYAKEJIMA,JAPAN,34.1167,139.5167,39,28.4,92,1007.9,W,6.2
47678,HACHIJOJIMA,JAPAN,33.1167,139.7667,152,26.7,97,1009.5,W,3.6
47682,CHIBA,JAPAN,35.6,140.1,6,28.5,83,1005.6,SW,5.7
47684,YOKKAICHI,JAPAN,34.9333,136.5667,57,26.5,81,1007.9,NW,1.0
47690,NIKKO,JAPAN,36.7333,139.5,1294,19.3,92,-,W,3.1
47740,SAIGO,JAPAN,36.2,133.3333,28,28.4,82,1006.5,W,7.2
47741,MATSUE,JAPAN,35.45,133.05,22,28.2,81,1007.4,W,2.6
47742,SAKAI,JAPAN,35.5333,133.2333,3,27.9,85,1007.3,N,0.5
47744,YONAGO,JAPAN,35.4333,133.3333,8,27.9,80,1007.3,S,0.5
47746,TOTTORI,JAPAN,35.4833,134.2333,15,27.3,81,1007.3,E,2.1
47747,TOYOOKA,JAPAN,35.5333,134.8167,5,26.4,88,1007.7,N,1.0
47750,MAIZURU,JAPAN,35.45,135.3167,4,27.0,87,1008.0,N,0.5
47754,HAGI,JAPAN,34.4,131.4,3,27.0,91,1007.9,SE,1.6
47755,HAMADA,JAPAN,34.8833,132.0667,20,27.6,86,1008.0,E,0.5
47756,TSUYAMA,JAPAN,35.05,134.0,147,25.0,94,1008.4,W,1.0
47759,KYOTO,JAPAN,35.0,135.7167,52,29.3,71,1008.1,N,0.5
47761,HIKONE,JAPAN,35.2667,136.2333,92,28.0,78,1008.2,SE,2.1
47762,SHIMONOSEKI,JAPAN,33.9333,130.9167,19,28.0,91,1008.0,E,1.6
47765,HIROSHIMA,JAPAN,34.3833,132.45,54,28.2,81,1008.3,SW,2.6
47766,KURE,JAPAN,34.2333,132.55,5,27.9,87,1008.4,SW,3.6
47767,FUKUYAMA,JAPAN,34.4333,133.2333,3,27.2,85,1008.4,NE,1.0
47768,OKAYAMA,JAPAN,34.6833,133.9167,6,27.1,84,1008.3,NE,1.6
47769,HIMEJI,JAPAN,34.8333,134.6667,39,27.1,85,1008.1,NW,1.0
47770,KOBE,JAPAN,34.6833,135.2,30,28.6,83,1008.4,W,3.1
47772,OSAKA,JAPAN,34.6667,135.5167,83,29.4,77,1008.1,SW,2.1
47776,SUMOTO,JAPAN,34.3333,134.9,112,26.7,86,1008.2,SW,1.6
47777,WAKAYAMA,JAPAN,34.2167,135.15,18,29.5,75,1008.3,S,5.1
47778,SHIONOMISAKI,JAPAN,33.45,135.75,69,26.5,98,1009.2,W,5.1
47780,NARA,JAPAN,34.6833,135.8167,108,28.0,73,1008.5,S,2.1
47784,YAMAGUCHI,JAPAN,34.15,131.45,19,26.8,93,1008.3,S,0.5
47800,IZUHARA,JAPAN,34.1833,129.2833,4,29.1,82,1007.0,S,7.2
47805,HIRADO,JAPAN,33.35,129.55,58,27.9,92,1006.8,S,2.6
47807,FUKUOKA,JAPAN,33.5667,130.3667,15,29.8,74,1007.5,E,2.6
47809,IIZUKA,JAPAN,33.65,130.6833,37,28.5,79,1007.7,SE,0.5
47812,SASEBO,JAPAN,33.15,129.7167,5,28.7,86,1007.5,SE,3.1
47813,SAGA,JAPAN,33.25,130.3,33,29.2,81,1007.8,S,3.1
47814,HITA,JAPAN,33.3167,130.9167,84,26.1,90,1008.3,NE,0.5
47815,OITA,JAPAN,33.2333,131.6167,13,26.8,89,1008.0,S,2.1
47817,NAGASAKI,JAPAN,32.7333,129.8667,35,28.8,79,1007.6,S,1.6
47818,UNZENDAKE,JAPAN,32.7333,130.25,679,23.5,98,1008.4,S,5.7
47819,KUMAMOTO,JAPAN,32.8,130.7,39,28.0,80,1008.1,N,0.5
47822,NOBEOKA,JAPAN,32.5667,131.65,21,25.6,97,1008.3,W,2.1
47823,AKUNE,JAPAN,32.0167,130.2,42,28.3,84,1007.8,S,1.6
47824,HITOYOSHI,JAPAN,32.2167,130.75,147,25.6,98,1008.8,S,1.0
47827,KAGOSHIMA,JAPAN,31.55,130.5333,31,29.0,84,1008.2,S,1.6
47829,MIYAKONOJO,JAPAN,31.7167,131.0667,155,26.8,92,1008.5,SW,1.0
47830,MIYAZAKI,JAPAN,31.9333,131.4,15,27.1,86,1008.4,W,1.0
47831,MAKURAZAKI,JAPAN,31.2667,130.2833,31,28.6,91,1007.9,SE,3.1
47835,ABURATSU,JAPAN,31.5667,131.4,14,26.7,100,1008.5,NW,1.0
47836,YAKUSHIMA,JAPAN,30.3833,130.65,38,27.8,88,1008.3,S,2.1
47837,TANEGASHIMA,JAPAN,30.7167,130.9667,37,27.6,95,1008.3,SE,3.6
47838,USHIBUKA,JAPAN,32.1833,130.0167,15,28.4,85,1008.0,SE,1.6
47843,FUKUE,JAPAN,32.6833,128.8167,26,28.2,94,1006.8,S,3.1
47887,MATSUYAMA,JAPAN,33.8333,132.7667,34,29.8,68,1008.0,NE,1.6
47890,TADOTSU,JAPAN,34.2667,133.75,5,28.6,79,1008.1,W,1.0
47891,TAKAMATSU,JAPAN,34.3167,134.05,13,28.2,81,1008.1,N,1.0
47892,UWAJIMA,JAPAN,33.2167,132.55,14,27.8,83,1008.5,N,3.1
47893,KOCHI,JAPAN,33.5667,133.5333,4,28.2,90,1009.1,NE,2.1
47895,TOKUSHIMA,JAPAN,34.0667,134.5667,6,26.9,90,1008.1,NE,1.0
47897,SUKUMO,JAPAN,32.9167,132.6833,10,28.3,91,1008.6,SE,1.6
47898,SHIMIZU,JAPAN,32.7167,133.0,33,28.6,93,1008.7,W,3.6
47899,MUROTOMISAKI,JAPAN,33.25,134.1667,186,25.4,98,1008.9,W,6.7
47909,NAZE,JAPAN,28.3667,129.4833,7,30.0,76,1006.1,SE,3.6
47912,YONAGUNIJIMA,JAPAN,24.4667,123.0,36,28.6,86, 989.1,NE,12.9
47917,IRIOMOTEJIMA,JAPAN,24.4167,123.75,11,28.5,88, 988.0,E,12.9
47918,ISHIGAKIJIMA,JAPAN,24.3333,124.15,14,28.1,90, 988.4,E,15.4
47927,MIYAKOJIMA,JAPAN,24.7833,125.2667,41,28.2,83, 993.3,SE,12.9
47929,KUMEJIMA,JAPAN,26.3333,126.8,6,29.5,83,1001.2,E,11.3
47936,NAHA,JAPAN,26.2,127.6833,50,27.3,92,1002.1,SE,7.7
47940,NAGO,JAPAN,26.5833,127.95,7,29.1,84,1002.8,SE,7.7
47942,OKINOERABU,JAPAN,27.4167,128.7,29,27.8,91,1005.2,S,6.2
47945,MINAMIDAITOJIMA,JAPAN,25.8167,131.2167,20,27.0,89,1007.0,SE,6.2
47971,CHICHIJIMA,JAPAN,27.0833,142.1833,8,27.5,94,1013.0,NW,0.5
47991,MINAMITORISHIMA,JAPAN,24.2833,153.9833,8,28.1,78,1013.9,E,2.1
50136,MOHE,CHINA,52.9667,122.5167,438,12.8,94,1005.3,SW,1.0
50353,HUMA,CHINA,51.7333,126.6333,175,14.5,93,1004.6,S,1.0
50434,TULIHE,CHINA,50.4833,121.6833,737,14.0,98,1005.8,E,3.0
50468,AIHUI,CHINA,50.25,127.45,166,17.9,93,1003.5,NW,2.0
50527,HAILAR,CHINA,49.25,119.7,650,19.2,86,1003.7,E,4.0
50658,KESHAN,CHINA,48.05,125.8833,237,17.0,89,1003.4,N,2.0
50727,ARXAN,CHINA,47.1667,119.9333,997,16.2,93,1003.9,SW,1.0
50788,FUJIN,CHINA,47.2333,131.9833,65,19.7,81,1003.0,NE,3.0
50854,ANDA,CHINA,46.3833,125.3167,150,23.3,88,1001.1,N,1.0
50915,ULIASTAI,CHINA,45.5167,116.9667,841,19.9,80,1000.7,S,1.0
50949,QIAN GORLOS,CHINA,45.0833,124.8667,136,22.5,100,1000.5,E,2.0
50983,HULIN,CHINA,45.7667,132.9667,103,20.4,95,1000.6,N,5.0
52112,NAOMAOHU,CHINA,43.6,95.1333,469,27.0,22, 998.6,W,1.0
52323,MAZONG SHAN,CHINA,41.8,97.0333,1770,15.3,66,1008.2,SW,7.0
52378,GUAIZIHU,CHINA,41.3667,102.3667,961,22.6,57,1002.7,SW,4.0
52436,YUMENZHEN,CHINA,40.2667,97.0333,1527,12.5,75,1007.7,W,1.0
52602,LENGHU,CHINA,38.8333,93.3833,2771,10.2,44,1002.1,N,2.0
52652,ZHANGYE,CHINA,39.0833,100.2833,1462,16.6,93,1007.3,SE,3.0
52737,DELINGHA,CHINA,37.3667,97.3667,2982,16.6,49, 996.0,E,3.0
52787,WUSHAOLING,CHINA,37.2,102.8667,3044,8.3,100,1008.0,N,7.0
52908,WUDAOLIANG,CHINA,35.2167,93.0833,4613,5.2,82,1002.6,NE,4.0
52983,YU ZHONG,CHINA,35.8667,104.15,1875,16.7,77,1002.5,W,2.0
53149,MANDAL,CHINA,42.5333,110.1333,1223,25.4,38, 993.2,NE,3.0
53192,ABAG QI,CHINA,44.0167,115.0,1147,20.9,83, 998.6,NE,6.0
53463,HOHHOT,CHINA,40.85,111.5667,1153,24.5,58, 997.2,W,1.0
53502,JARTAI,CHINA,39.7833,105.75,1033,25.6,37, 998.5,E,2.0
53564,HEQU,CHINA,39.35,111.2,1037,24.2,60, 996.8,S,2.0
53614,YINCHUAN,CHINA,38.4667,106.2,1112,24.4,56, 997.8,N,1.0
53764,LISHI,CHINA,37.5,111.1,951,23.0,80, 998.3,NW,3.0
53959,YUNCHENG,CHINA,35.1,111.05,376,27.6,88, 996.4,E,2.0
54096,SUIFENHE,CHINA,44.3833,131.15,569,19.8,98,1000.9,W,3.0
54161,CHANGCHUN,CHINA,43.9,125.2167,238,21.7,100, 999.2,NE,1.0
54208,DUOLUN,CHINA,42.1833,116.4667,1247,17.1,84, 999.0,SW,2.0
54236,ZHANGWU,CHINA,42.4167,122.5333,84,22.8,98, 998.8,N,1.0
54337,JINZHOU,CHINA,41.1333,121.1167,70,25.0,100, 999.0,NE,1.0
54386,CHANGBAI,CHINA,41.4167,128.1833,775,16.4,100,1005.8,E,1.0
54511,BEIJING,CHINA,39.9333,116.2833,32,30.6,83, 997.0,S,1.0
54618,POTOU,CHINA,38.0833,116.55,13,30.2,98, 997.8,S,2.0
54776,CHENGSHANTOU,CHINA,37.4,122.6833,47,20.9,100,1001.9,SE,6.0
54823,JINAN,CHINA,36.6,117.05,169,31.0,74, 998.2,E,1.0
54945,RIZHAO,CHINA,35.4333,119.5333,37,24.1,95,1000.5,NE,1.0
55299,NAGQU,CHINA,31.4833,92.0667,4508,10.7,74, 990.0,N,2.0
55591,LHASA,CHINA,29.6667,91.1333,3650,16.9,62, 988.1,NW,1.0
56033,MADOI,CHINA,34.9167,98.2167,4273,5.3,73,1004.1,SE,1.0
56046,DARLAG,CHINA,33.75,99.65,3968,10.8,71, 998.3,calm,-
56096,WUDU,CHINA,33.4,104.9167,1079,22.1,94,1000.3,calm,-
56137,QAMDO,CHINA,31.15,97.1667,3316,14.5,88, 992.2,NW,1.0
56172,BARKAM,CHINA,31.9,102.2333,2666,15.6,96, 994.4,N,1.0
56374,KANGDING,CHINA,30.05,101.9667,2617,17.0,90, 994.7,SW,1.0
56444,DEQEN,CHINA,28.45,98.8833,3320,14.9,78, 993.9,W,1.0
56492,YIBIN,CHINA,28.8,104.6,342,28.3,88, 992.6,W,3.0
56586,ZHAOTONG,CHINA,27.3333,103.75,1950,22.8,72, 993.2,SE,3.0
56751,DALI,CHINA,25.7,100.1833,1992,20.4,87, 994.4,W,2.0
56838,RUILI,CHINA,24.0,97.85,763,24.1,100,1001.4,W,1.0
56964,SIMAO,CHINA,22.7667,100.9833,1303,20.7,95, 998.4,S,1.0
56969,MENGLA,CHINA,21.5,101.5833,633,24.4,94, 998.0,SW,1.0
57265,LAOHEKOU,CHINA,32.4333,111.7333,128,29.1,93, 996.6,NE,2.0
57328,DA XIAN,CHINA,31.2,107.5,344,29.5,81, 994.7,E,2.0
57554,SANGZHI,CHINA,29.4,110.1667,322,27.1,85, 997.6,W,1.0
57687,CHANGSHA,CHINA,28.1,112.7833,120,29.1,80, 997.5,W,2.0
57853,WUGANG,CHINA,26.7333,110.6333,340,29.2,66, 998.3,SW,2.0
57916,LUODIAN,CHINA,25.4333,106.7667,441,26.7,82, 999.7,E,1.0
58102,BOXIAN,CHINA,33.7833,115.7333,40,31.3,74, 997.7,SE,2.0
58150,SHEYANG,CHINA,33.75,120.3,3,29.7,87,1000.4,SE,2.0
58265,LUSI,CHINA,32.0667,121.6,10,28.1,91,1001.5,SE,4.0
58314,HUOSHAN,CHINA,31.4,116.3333,87,29.0,87, 998.0,SE,1.0
58472,SHENGSI,CHINA,30.7333,122.45,81,27.5,89,1001.7,calm,-
58506,LU SHAN,CHINA,29.5833,115.9833,1165,25.4,62, 999.6,SE,3.0
58569,SHIPU,CHINA,29.2,121.95,127,27.2,93,1002.1,SE,2.0
58731,PUCHENG,CHINA,27.9167,118.5333,275,26.3,93, 999.2,E,1.0
58834,NANPING,CHINA,26.6333,118.15,153,30.0,69, 998.8,NE,1.0
58926,ZHANG PING,CHINA,25.3,117.4,203,26.6,81, 998.1,SE,1.0
59007,GUANGNAN,CHINA,24.0667,105.0667,1251,22.8,87, 997.8,S,1.0
59072,LIANZHOU,CHINA,24.8,112.3667,132,27.0,91, 999.2,N,1.0
59265,WUZHOU,CHINA,23.4833,111.3,120,28.6,84, 999.1,SE,1.0
59316,SHANTOU,CHINA,23.4,116.6833,3,30.1,79, 997.7,E,1.0
59758,HAIKOU,CHINA,20.0,110.25,64,26.6,89, 999.5,E,1.0
59948,SANYA,CHINA,18.2167,109.5833,420,25.0,98,1000.7,S,2.0
59981,XISHA DAO,CHINA,16.8333,112.3333,5,29.5,87,1000.5,SW,6.0
91165,LIHUE,"KAUAI, HAWAII, ISLANDS IN THE PACIFIC OCEAN NORTH OF THE EQUATOR",21.9833,-159.3333,31,25.6,84,1017.6,NE,6.7
91182,HONOLULU,"OAHU, HAWAII, ISLANDS IN THE PACIFIC OCEAN NORTH OF THE EQUATOR",21.35,-157.9333,5,25.6,79,1016.4,NE,5.7
91190,KAHULUI AIRPORT,"MAUI, HAWAII, ISLANDS IN THE PACIFIC OCEAN NORTH OF THE EQUATOR",20.9,-156.4333,20,25.0,84,1016.7,NE,8.2
91212,WEATHER FORECAST OFFICE,"GUAM, MARIANA IS., ISLANDS IN THE PACIFIC OCEAN NORTH OF THE EQUATOR",13.4667,144.7833,75,27.0,88,-,NE,2.6
91285,HILO HI,"HAWAII, ISLANDS IN THE PACIFIC OCEAN NORTH OF THE EQUATOR",19.7167,-155.05,10,25.6,87,1017.5,calm,-
91334,WEATHER SERVICE OFFICE,"CHUUK, ECI, ISLANDS IN THE PACIFIC OCEAN NORTH OF THE EQUATOR",7.45,151.8333,3,25.8,90,1007.8,calm,-
91348,WEATHER SERVICE OFFICE,"POHNPEI, CAROLINE IS., ISLANDS IN THE PACIFIC OCEAN NORTH OF THE EQUATOR",6.95,158.2,37,25.2,98,1008.4,calm,-
91367,AILINGLAPALAP ATOLL,"MARSHALL IS., ISLANDS IN THE PACIFIC OCEAN NORTH OF THE EQUATOR",7.2667,168.8333,3,27.1,82,-,E,3.6
91376,MAJURO/MARSHALL IS. INTNL.,ISLANDS IN THE PACIFIC OCEAN NORTH OF THE EQUATOR,7.0667,171.2833,4,27.9,83,1007.5,E,2.1
91408,WEATHER SERVICE OFFICE,"KOROR, PALAU WCI., ISLANDS IN THE PACIFIC OCEAN NORTH OF THE EQUATOR",7.3333,134.4833,29,26.5,87,1009.1,calm,-
91413,WEATHER SERVICE OFFICE,"YAP, CAROLINE IS., ISLANDS IN THE PACIFIC OCEAN NORTH OF THE EQUATOR",9.4833,138.0667,28,25.8,94,1009.3,calm,-
91490,CHRISTMAS ISLAND,ISLANDS IN THE PACIFIC OCEAN NORTH OF THE EQUATOR,1.9833,-157.4833,3,27.8,82,1009.2,-,-
98134,BASCO RADAR,PHILIPPINES,20.4167,121.9667,167,26.4,94, 992.6,W,7.0
98223,LAOAG,PHILIPPINES,18.1667,120.5333,5,25.3,93,1000.4,S,4.0
98232,APARRI,PHILIPPINES,18.35,121.6167,3,26.0,92, 997.7,S,3.0
98325,DAGUPAN,PHILIPPINES,16.0833,120.35,2,25.0,95,1003.0,E,3.0
98328,BAGUIO,PHILIPPINES,16.4,120.6,1501,17.8,98,1001.2,SW,5.0
98336,CASIGURAN,PHILIPPINES,16.25,122.1167,4,27.5,90, 999.2,NW,2.0
98429,NINOY AQUINO INTERNATIONAL AIRPORT,PHILIPPINES,14.5,121.0,15,25.8,98,1003.2,SW,1.0
98430,SCIENCE GARDEN,PHILIPPINES,14.6333,121.0333,46,25.3,97,1003.3,calm,-
98431,CALAPAN,PHILIPPINES,13.4,121.1833,41,24.2,95,1003.8,E,1.0
98440,DAET,PHILIPPINES,14.1167,122.9667,4,26.2,86,1003.4,S,1.0
98444,LEGASPI,PHILIPPINES,13.15,123.7167,17,25.6,94,1005.1,SE,2.0
98526,CORON,PHILIPPINES,12.2167,120.1833,60,27.5,87,1005.8,SW,3.0
98531,SAN JOSE,PHILIPPINES,12.35,121.0333,3,27.4,88,1006.1,W,5.0
98536,ROMBLON,PHILIPPINES,12.5833,122.2667,47,25.5,92,1005.7,SW,2.0
98543,MASBATE,PHILIPPINES,12.35,123.6167,6,27.0,84,1006.2,S,3.0
98618,PUERTO PRINCESA,PHILIPPINES,9.7333,118.75,15,25.2,95,1007.4,S,2.0
98630,CUYO,PHILIPPINES,10.85,121.0,4,27.2,-,1009.0,SW,3.0
98646,MACTAN,PHILIPPINES,10.3167,123.9667,24,28.7,82,1008.0,SW,3.0
98653,SURIGAO,PHILIPPINES,9.7667,125.4833,55,28.4,80,1007.6,S,1.0
98753,DAVAO AIRPORT,PHILIPPINES,7.1167,125.65,18,27.5,84,1008.3,NE,1.0
98836,ZAMBOANGA,PHILIPPINES,6.9167,122.05,6,24.8,89,1008.8,calm,-
