ID,City,Country,Latitude,Longitude,Height,Temperature,Humidity,Pressure,Wind Direction,Wind Speed
91203,FALALOP ISLAND (CG),"ULITHI ATOLL, ISLANDS IN THE PACIFIC OCEAN NORTH OF THE EQUATOR",10.0333,139.8,5,29.5,91,1007.0,SE,1.0
91317,WOLEAI ATOLL,"CAROLINE IS., ISLANDS IN THE PACIFIC OCEAN NORTH OF THE EQUATOR",7.3833,143.9167,4,31.9,83,1009.4,N,2.6
91334,WEATHER SERVICE OFFICE,"CHUUK, ECI, ISLANDS IN THE PACIFIC OCEAN NORTH OF THE EQUATOR",7.45,151.8333,3,29.4,92,1009.8,NE,5.1
91339,LUKUNOCH ATOLL,"CAROLINE ISLANDS, ISLANDS IN THE PACIFIC OCEAN NORTH OF THE EQUATOR",5.5,153.8167,3,28.9,76,1007.7,NE,5.1
91348,WEATHER SERVICE OFFICE,"POHNPEI, CAROLINE IS., ISLANDS IN THE PACIFIC OCEAN NORTH OF THE EQUATOR",6.95,158.2,37,30.2,73,1010.6,NE,2.6
91376,MAJURO/MARSHALL IS. INTNL.,ISLANDS IN THE PACIFIC OCEAN NORTH OF THE EQUATOR,7.0667,171.2833,4,29.5,77,1009.5,NE,2.6
91413,WEATHER SERVICE OFFICE,"YAP, CAROLINE IS., ISLANDS IN THE PACIFIC OCEAN NORTH OF THE EQUATOR",9.4833,138.0667,28,30.8,79,1009.5,-,-
91490,CHRISTMAS ISLAND,ISLANDS IN THE PACIFIC OCEAN NORTH OF THE EQUATOR,1.9833,-157.4833,3,27.7,77,1010.5,SE,2.6
