ID,City,Country,Latitude,Longitude,Height,Temperature,Humidity,Pressure,Wind Direction,Wind Speed
44231,MUREN,MONGOLIA,49.6333,100.1667,1283,16.0,55,1003.1,S,1.0
44259,CHOIBALSAN,MONGOLIA,48.0833,114.55,747,15.4,72,1008.9,S,2.0
44277,ALTAI,MONGOLIA,46.4,96.25,2181,15.6,44,1005.0,SW,4.0
44288,ARVAIHEER,MONGOLIA,46.2667,102.7833,1813,16.8,46,1006.2,W,2.0
44292,ULAANBAATAR,MONGOLIA,47.9167,106.8667,1729,16.4,64,1008.3,SE,1.0
44354,SAINSHAND,MONGOLIA,44.9,110.1167,938,16.5,79,1006.9,calm,-
44373,DALANZADGAD,MONGOLIA,43.5833,104.4167,1465,16.4,44,1006.6,S,2.0
45007,HONG KONG INTERNATIONAL AIRPORT,"HONG KONG, CHINA",22.3,113.9167,7,30.2,73,1004.4,S,8.0
45032,TA KWU LING,"HONG KONG, CHINA",22.5167,114.15,14,29.0,82,1004.5,S,2.0
45035,LAU FAU SHAN,"HONG KONG, CHINA",22.4667,113.9833,35,28.9,86,1004.8,S,4.0
45039,SHA TIN,"HONG KONG, CHINA",22.4,114.2,12,30.3,76,1004.8,S,4.0
47003,SENBONG,DEMOCRATIC PEOPLE'S REPUBLIC OF KOREA,42.3167,130.4,3,-,-,1008.8,calm,-
47005,SAMJIYON,DEMOCRATIC PEOPLE'S REPUBLIC OF KOREA,41.8167,128.3,1381,8.0,93,-,NE,2.0
47008,CHONGJIN,DEMOCRATIC PEOPLE'S REPUBLIC OF KOREA,41.7833,129.8167,43,-,-,1009.8,NW,1.0
47014,CHUNGGANG,DEMOCRATIC PEOPLE'S REPUBLIC OF KOREA,41.7833,126.8833,331,14.5,89,1011.5,calm,-
47016,HYESAN,DEMOCRATIC PEOPLE'S REPUBLIC OF KOREA,41.4,128.1667,714,15.0,80,1009.6,calm,-
47020,KANGGYE,DEMOCRATIC PEOPLE'S REPUBLIC OF KOREA,40.9667,126.6,306,20.4,96,1018.1,calm,-
47022,PUNGSAN,DEMOCRATIC PEOPLE'S REPUBLIC OF KOREA,40.8167,128.15,1200,14.4,88,-,calm,-
47025,KIMCHAEK,DEMOCRATIC PEOPLE'S REPUBLIC OF KOREA,40.6667,129.2,23,-,-,1006.8,N,2.0
47028,SUPUNG,DEMOCRATIC PEOPLE'S REPUBLIC OF KOREA,40.45,124.9333,76,20.7,99,1007.9,calm,-
47031,CHANGJIN,DEMOCRATIC PEOPLE'S REPUBLIC OF KOREA,40.3667,127.25,1080,14.7,90,-,calm,-
47035,SINUIJU,DEMOCRATIC PEOPLE'S REPUBLIC OF KOREA,40.1,124.3833,7,21.9,99,1005.1,SE,2.0
47037,KUSONG,DEMOCRATIC PEOPLE'S REPUBLIC OF KOREA,39.9833,125.25,99,21.8,96,1001.6,calm,-
47039,HUICHON,DEMOCRATIC PEOPLE'S REPUBLIC OF KOREA,40.1667,126.25,155,20.7,88,1006.4,calm,-
47041,HAMHEUNG,DEMOCRATIC PEOPLE'S REPUBLIC OF KOREA,39.9333,127.55,22,19.1,92,1007.5,S,1.0
47046,SINPO,DEMOCRATIC PEOPLE'S REPUBLIC OF KOREA,40.0333,128.1833,19,-,-,1006.2,calm,-
47050,ANJU,DEMOCRATIC PEOPLE'S REPUBLIC OF KOREA,39.6167,125.65,27,22.5,80,1005.6,NE,1.0
47052,YANGDOK,DEMOCRATIC PEOPLE'S REPUBLIC OF KOREA,39.2167,126.65,279,19.0,82,1008.8,SE,4.0
47055,WONSAN,DEMOCRATIC PEOPLE'S REPUBLIC OF KOREA,39.1833,127.4333,36,19.4,96,1009.0,calm,-
47058,PYONGYANG,DEMOCRATIC PEOPLE'S REPUBLIC OF KOREA,39.0333,125.7833,36,22.7,84,1004.8,E,2.0
47060,NAMPO,DEMOCRATIC PEOPLE'S REPUBLIC OF KOREA,38.7167,125.3833,47,23.5,91,1005.0,E,4.0
47061,CHANGJON,DEMOCRATIC PEOPLE'S REPUBLIC OF KOREA,38.7333,128.1833,34,-,-,1011.2,calm,-
47065,SARIWON,DEMOCRATIC PEOPLE'S REPUBLIC OF KOREA,38.5167,125.7667,52,23.1,88,1005.2,SE,2.0
47067,SINGYE,DEMOCRATIC PEOPLE'S REPUBLIC OF KOREA,38.5,126.5333,97,21.0,79,-,calm,-
47068,RYONGYON,DEMOCRATIC PEOPLE'S REPUBLIC OF KOREA,38.15,124.8833,6,22.5,94,1004.7,E,2.0
47069,HAEJU,DEMOCRATIC PEOPLE'S REPUBLIC OF KOREA,38.0333,125.7,81,24.9,74,1003.7,SE,6.0
47070,KAESONG,DEMOCRATIC PEOPLE'S REPUBLIC OF KOREA,37.9667,126.5667,70,22.7,84,1005.4,E,2.0
47401,WAKKANAI,JAPAN,45.4,141.6667,11,15.4,83, 999.9,W,6.7
47407,ASAHIKAWA,JAPAN,43.75,142.3667,140,15.2,80,1002.5,S,2.1
47409,ABASHIRI,JAPAN,44.0167,144.2667,43,18.7,56, 996.8,W,6.7
47412,SAPPORO,JAPAN,43.05,141.3167,26,16.1,68,1003.1,SE,0.5
47418,KUSHIRO,JAPAN,42.9833,144.3667,39,15.6,70, 999.1,W,6.7
47420,NEMURO,JAPAN,43.3167,145.5833,27,16.9,65, 997.7,W,6.2
47421,SUTTSU,JAPAN,42.7833,140.2167,35,18.9,72,1004.0,W,5.7
47426,URAKAWA,JAPAN,42.15,142.7667,38,15.0,79,1002.9,W,4.1
47430,HAKODATE,JAPAN,41.8167,140.75,43,17.2,79,1006.4,W,3.6
47570,WAKAMATSU,JAPAN,37.4833,139.9,213,20.2,92,1008.7,SE,0.5
47575,AOMORI,JAPAN,40.8167,140.7667,4,17.6,73,1007.1,S,3.1
47582,AKITA,JAPAN,39.7167,140.0833,21,15.9,84,1008.8,E,2.1
47584,MORIOKA,JAPAN,39.6833,141.15,155,16.8,84,1008.4,NE,1.0
47590,SENDAI,JAPAN,38.25,140.8833,43,22.3,80,1007.2,SE,1.6
47600,WAJIMA,JAPAN,37.3833,136.8833,6,19.2,95,1009.4,SW,1.0
47604,NIIGATA,JAPAN,37.8833,139.0167,5,22.2,90,1009.0,S,1.6
47605,KANAZAWA,JAPAN,36.5833,136.6333,33,22.1,90,1009.4,S,1.6
47624,MAEBASHI,JAPAN,36.4,139.05,114,23.4,66,1007.1,NW,3.1
47636,NAGOYA,JAPAN,35.1667,136.95,56,23.1,97,1009.1,N,2.1
47648,CHOSHI,JAPAN,35.7333,140.85,28,24.2,97,1006.8,E,1.6
47655,OMAEZAKI,JAPAN,34.6,138.2,46,23.1,100,1007.7,W,5.7
47662,TOKYO,JAPAN,35.6833,139.75,24,25.5,83,1006.7,N,1.0
47675,OSHIMA,JAPAN,34.7333,139.35,75,23.6,98,1007.4,W,1.6
47678,HACHIJOJIMA,JAPAN,33.1167,139.7667,152,25.1,100,1009.7,SW,6.2
47740,SAIGO,JAPAN,36.2,133.3333,28,22.5,100,1009.3,calm,-
47741,MATSUE,JAPAN,35.45,133.05,22,23.9,98,1009.4,W,4.6
47746,TOTTORI,JAPAN,35.4833,134.2333,15,23.6,100,1009.6,NW,1.0
47765,HIROSHIMA,JAPAN,34.3833,132.45,54,23.8,90,1009.7,SE,0.5
47772,OSAKA,JAPAN,34.6667,135.5167,83,24.6,95,1009.6,S,1.6
47778,SHIONOMISAKI,JAPAN,33.45,135.75,69,24.6,100,1009.4,W,6.7
47800,IZUHARA,JAPAN,34.1833,129.2833,4,24.4,98,1007.3,SE,3.6
47807,FUKUOKA,JAPAN,33.5667,130.3667,15,24.6,95,1008.3,E,1.0
47815,OITA,JAPAN,33.2333,131.6167,13,23.6,100,1010.0,N,1.0
47817,NAGASAKI,JAPAN,32.7333,129.8667,35,27.9,83,1009.0,S,6.2
47827,KAGOSHIMA,JAPAN,31.55,130.5333,31,27.8,88,1010.4,SW,1.6
47830,MIYAZAKI,JAPAN,31.9333,131.4,15,26.0,94,1010.0,N,1.6
47843,FUKUE,JAPAN,32.6833,128.8167,26,25.7,-,1007.7,SW,4.1
47887,MATSUYAMA,JAPAN,33.8333,132.7667,34,24.3,95,1009.8,NE,1.6
47891,TAKAMATSU,JAPAN,34.3167,134.05,13,25.1,93,1009.9,SW,1.0
47909,NAZE,JAPAN,28.3667,129.4833,7,27.2,87,1011.0,SW,1.6
47918,ISHIGAKIJIMA,JAPAN,24.3333,124.15,14,29.8,79,1009.0,S,7.7
47927,MIYAKOJIMA,JAPAN,24.7833,125.2667,41,28.7,85,1009.4,S,5.1
47936,NAHA,JAPAN,26.2,127.6833,50,28.4,86,1010.4,S,3.6
47945,MINAMIDAITOJIMA,JAPAN,25.8167,131.2167,20,28.3,85,1012.6,S,4.1
47971,CHICHIJIMA,JAPAN,27.0833,142.1833,8,28.1,92,1016.3,NE,1.0
91490,CHRISTMAS ISLAND,ISLANDS IN THE PACIFIC OCEAN NORTH OF THE EQUATOR,1.9833,-157.4833,3,31.8,69,1010.9,E,2.1
