ID,City,Country,Latitude,Longitude,Height,Temperature,Humidity,Pressure,Wind Direction,Wind Speed
21432,OSTROV KOTEL'NYJ,RUSSIAN FEDERATION,76.0,137.8667,14,4.1,93,1010.3,E,4.0
21608,ANABAR,RUSSIAN FEDERATION,73.2167,113.5,13,5.4,84,1011.9,NE,6.0
21636,KIGILYAH,RUSSIAN FEDERATION,73.3333,139.8667,24,9.4,69,1004.8,E,8.0
21721,IM.YU.A. HABAROVA,RUSSIAN FEDERATION,72.4,126.35,19,11.8,92,1005.4,NW,5.0
21908,DZALINDA,RUSSIAN FEDERATION,70.1333,113.9667,61,8.2,71,1010.8,NE,3.0
21931,JUBILEJNAJA,RUSSIAN FEDERATION,70.7667,136.2167,24,18.2,53, 999.7,NE,3.0
21946,CHOKURDAH,RUSSIAN FEDERATION,70.6167,147.8833,61,16.9,38,1005.0,SE,4.0
21978,VAL' KARKAJ,RUSSIAN FEDERATION,70.0833,170.9167,5,3.8,91,1012.5,E,4.0
21982,OSTROV VRANGELJA,RUSSIAN FEDERATION,70.9833,-178.65,4,1.9,79,1008.1,NW,13.0
24143,DZARDZAN,RUSSIAN FEDERATION,68.7333,124.0,38,14.8,78,1007.3,NW,1.0
24266,VERHOJANSK,RUSSIAN FEDERATION,67.5667,133.4,136,18.9,65, 999.7,S,3.0
24329,SHELAGONTSY,RUSSIAN FEDERATION,66.25,114.2833,235,20.7,48,1007.9,NW,1.0
24382,UST'-MOMA,RUSSIAN FEDERATION,66.45,143.2333,195,14.7,80, 999.1,W,2.0
24507,TURA,RUSSIAN FEDERATION,64.2667,100.2167,190,25.8,48, 998.4,S,3.0
24639,NJURBA,RUSSIAN FEDERATION,63.2833,118.3333,119,22.8,31,1007.7,NE,2.0
24661,SEGEN-KYUEL',RUSSIAN FEDERATION,64.0,130.3,208,13.9,82,1002.8,NE,1.0
24688,OJMJAKON,RUSSIAN FEDERATION,63.25,143.15,739,14.5,65, 999.3,NW,1.0
24807,MUTORAJ,RUSSIAN FEDERATION,61.3167,100.4667,331,20.6,90,1000.7,NW,2.0
24856,POKROVSK,RUSSIAN FEDERATION,61.4833,129.15,120,22.7,33,1004.6,W,6.0
24933,KILEER,RUSSIAN FEDERATION,60.95,119.3,249,23.7,26,1006.4,N,1.0
24982,UEGA,RUSSIAN FEDERATION,60.7167,142.7833,397,15.2,68,1002.5,S,2.0
25121,KOLYMSKAYA,RUSSIAN FEDERATION,68.7333,158.7167,12,13.4,54,1006.9,E,5.0
25248,ILIRNEJ,RUSSIAN FEDERATION,67.25,167.9667,353,7.3,62,1009.7,E,2.0
25282,MYS VANKAREM,RUSSIAN FEDERATION,67.8333,-175.8333,4,0.4,95,1007.6,NW,8.0
25503,KORKODON,RUSSIAN FEDERATION,64.75,153.9667,98,14.8,82,1000.5,calm,-
25563,ANADYR',RUSSIAN FEDERATION,64.7833,177.5667,60,9.3,65,1006.9,W,5.0
25715,OMSUKCHAN,RUSSIAN FEDERATION,62.5167,155.8,499,11.4,67,1003.1,SW,2.0
25745,KAMENSKOE,RUSSIAN FEDERATION,62.4667,166.2,40,11.3,53,1008.1,E,4.0
25927,BROHOVO,RUSSIAN FEDERATION,59.65,154.2667,5,12.0,86,1003.5,E,4.0
29263,ENISEJSK,RUSSIAN FEDERATION,58.45,92.2,78,20.0,86,1002.2,N,1.0
29467,ACHINSK,RUSSIAN FEDERATION,56.2833,90.5167,257,20.0,79,1004.5,S,3.0
29866,MINUSINSK,RUSSIAN FEDERATION,53.7167,91.7,254,21.6,63,1006.3,N,1.0
30157,MAMA,RUSSIAN FEDERATION,58.3167,112.8667,224,28.8,37,1002.1,SE,2.0
30309,BRATSK,RUSSIAN FEDERATION,56.2833,101.75,416,17.5,95,1003.6,W,1.0
30554,BAGDARIN,RUSSIAN FEDERATION,54.4333,113.5667,902,24.1,42,1002.5,N,3.0
30612,BALAGANSK,RUSSIAN FEDERATION,54.0,103.0667,426,24.1,51,1004.3,W,2.0
30758,CHITA,RUSSIAN FEDERATION,52.0833,113.4833,670,28.0,23,1001.7,NW,3.0
30949,KYRA,RUSSIAN FEDERATION,49.5667,111.9667,907,25.0,42,1003.0,SE,1.0
31026,UCHUR,RUSSIAN FEDERATION,58.7333,130.6167,197,24.5,47,1005.3,W,3.0
31168,AYAN,RUSSIAN FEDERATION,56.45,138.15,7,13.0,92,1007.1,S,3.0
31300,ZEJA,RUSSIAN FEDERATION,53.7333,127.2667,230,24.1,62,1003.3,N,1.0
31369,NIKOLAEVSK-NA-AMURE,RUSSIAN FEDERATION,53.1333,140.6833,45,18.0,82,1007.8,SE,2.0
31532,CEKUNDA,RUSSIAN FEDERATION,50.8667,132.25,271,26.1,62,1002.4,calm,-
31707,EKATERINO-NIKOL'SKOE,RUSSIAN FEDERATION,47.7333,130.9667,72,27.4,81,1002.5,S,1.0
31909,TERNEJ,RUSSIAN FEDERATION,45.0,136.6,61,20.4,98,1003.5,calm,-
32061,ALEKSANDROVSK-SAHALINSKIJ,RUSSIAN FEDERATION,50.9,142.1667,31,17.8,92,1006.9,N,3.0
32099,MYS TERPENIYA,RUSSIAN FEDERATION,48.65,144.7333,6,13.7,100,1006.6,S,7.0
32165,JUZHNO-KURIL'SK,RUSSIAN FEDERATION,44.0167,145.8667,45,19.6,100,1009.0,-,-
32287,UST'- HAJRJUZOVO,RUSSIAN FEDERATION,57.0833,156.7333,8,13.3,97,1003.1,SE,1.0
32477,SOBOLEVO,RUSSIAN FEDERATION,54.3,155.9167,25,11.7,98,1005.1,S,4.0
32594,OZERNAJA,RUSSIAN FEDERATION,51.4833,156.4833,28,12.2,99,1007.4,S,5.0
32618,OSTROV BERINGA,RUSSIAN FEDERATION,55.2,165.9833,17,12.3,91,1009.9,S,8.0
36278,MUGUR-AKSY,RUSSIAN FEDERATION,50.3667,90.4167,1850,20.6,27,-,W,6.0
44203,RINCHINLHUMBE,MONGOLIA,51.1167,99.6667,1583,14.5,68,1009.1,NW,6.0
44207,HATGAL,MONGOLIA,50.4333,100.15,1668,17.9,49,1005.5,SW,6.0
44212,ULAANGOM,MONGOLIA,49.8,92.0833,939,26.1,21,1003.5,NE,4.0
44213,BARUUNTURUUN,MONGOLIA,49.65,94.4,1232,24.1,26,1002.8,N,3.0
44215,OMNO-GOBI,MONGOLIA,49.0167,91.7167,1590,23.8,23,1001.9,NW,4.0
44218,HOVD,MONGOLIA,48.0167,91.5667,1405,25.9,23,1000.5,NE,3.0
44225,TOSONTSENGEL,MONGOLIA,48.7333,98.2,1723,26.5,17, 998.4,SW,3.0
44230,TARIALAN,MONGOLIA,49.5667,102.0,1235,23.7,45,1004.1,SE,3.0
44231,MUREN,MONGOLIA,49.6333,100.1667,1283,24.9,28,1001.5,N,3.0
44232,HUTAG,MONGOLIA,49.3833,102.7,938,26.1,52,1000.8,E,2.0
44237,ERDENEMANDAL,MONGOLIA,48.5333,101.3833,1509,23.0,45,1003.0,NE,2.0
44239,BULGAN,MONGOLIA,48.8,103.55,1208,23.9,53,1002.5,S,1.0
44241,BARUUNHARAA,MONGOLIA,48.9167,106.0667,807,25.4,51,1003.2,NE,2.0
44256,DASHBALBAR,MONGOLIA,49.55,114.4,705,26.2,44,1003.8,SE,2.0
44259,CHOIBALSAN,MONGOLIA,48.0833,114.55,747,27.5,39,1003.4,W,3.0
44265,BAITAG,MONGOLIA,46.1167,91.4667,1186,26.5,25,1000.0,W,7.0
44272,ULIASTAI,MONGOLIA,47.75,96.85,1759,26.5,11, 996.2,W,7.0
44275,BAYANBULAG,MONGOLIA,46.8333,98.0833,2255,24.0,19, 998.9,S,4.0
44277,ALTAI,MONGOLIA,46.4,96.25,2181,22.1,16,1001.1,W,6.0
44282,TSETSERLEG,MONGOLIA,47.45,101.4667,1691,22.4,50,1002.7,E,5.0
44284,GALUUT,MONGOLIA,46.7,100.1333,2126,25.0,14, 998.2,N,1.0
44285,HUJIRT,MONGOLIA,46.9,102.7667,1662,22.9,47,1001.7,E,4.0
44287,BAYANHONGOR,MONGOLIA,46.1333,100.6833,1859,27.2,13, 996.9,S,3.0
44288,ARVAIHEER,MONGOLIA,46.2667,102.7833,1813,22.4,44,1002.1,N,6.0
44292,ULAANBAATAR,MONGOLIA,47.9167,106.8667,1729,25.7,41, 999.7,S,2.0
44294,MAANTI,MONGOLIA,47.3,107.4833,1430,23.8,47,1003.1,SE,4.0
44298,CHOIR,MONGOLIA,46.45,108.2167,1286,25.8,49,1001.3,SE,7.0
44302,BAYAN-OVOO,MONGOLIA,47.7833,112.1167,926,24.6,67,1004.3,SW,2.0
44304,UNDERKHAAN,MONGOLIA,47.3167,110.6333,1033,25.7,53,1003.4,S,2.0
44305,BARUUN-URT,MONGOLIA,46.6833,113.2833,981,26.8,36,1005.6,S,2.0
44313,KHALKH-GOL,MONGOLIA,47.6167,118.6167,688,25.9,45,1004.6,NW,2.0
44314,MATAD,MONGOLIA,47.1667,115.6333,907,26.3,27,1004.3,NW,3.0
44317,ERDENETSAGAAN,MONGOLIA,45.9,115.3667,1076,25.6,28,1002.0,calm,-
44336,SAIKHAN-OVOO,MONGOLIA,45.45,103.9,1316,31.7,20, 995.5,NW,4.0
44341,MANDALGOBI,MONGOLIA,45.7667,106.2833,1393,27.1,34, 997.1,SW,10.0
44347,TSOGT-OVOO,MONGOLIA,44.4167,105.3167,1298,28.1,33, 998.7,S,11.0
44352,BAYANDELGER,MONGOLIA,45.7333,112.3667,1101,27.6,34,1000.8,calm,-
44354,SAINSHAND,MONGOLIA,44.9,110.1167,938,33.2,16, 999.3,SE,5.0
44358,ZAMYN-UUD,MONGOLIA,43.7333,111.9,964,33.6,18, 999.2,S,2.0
44373,DALANZADGAD,MONGOLIA,43.5833,104.4167,1465,26.5,35, 999.8,SE,8.0
45007,HONG KONG INTERNATIONAL AIRPORT,"HONG KONG, CHINA",22.3,113.9167,7,32.2,66,1005.3,N,3.0
45032,TA KWU LING,"HONG KONG, CHINA",22.5167,114.15,14,32.2,69,1005.3,NE,2.0
45035,LAU FAU SHAN,"HONG KONG, CHINA",22.4667,113.9833,35,33.0,64,1005.2,W,4.0
45039,SHA TIN,"HONG KONG, CHINA",22.4,114.2,12,32.6,62,1005.6,NE,3.0
45044,CHEUNG CHAU,"HONG KONG, CHINA",22.2,114.0167,79,31.2,85,1005.8,W,4.0
47003,SENBONG,DEMOCRATIC PEOPLE'S REPUBLIC OF KOREA,42.3167,130.4,3,-,-,1003.6,calm,-
47005,SAMJIYON,DEMOCRATIC PEOPLE'S REPUBLIC OF KOREA,41.8167,128.3,1381,22.4,70,-,N,3.0
47008,CHONGJIN,DEMOCRATIC PEOPLE'S REPUBLIC OF KOREA,41.7833,129.8167,43,-,-,1004.8,W,2.0
47014,CHUNGGANG,DEMOCRATIC PEOPLE'S REPUBLIC OF KOREA,41.7833,126.8833,331,25.0,80,1008.7,NE,4.0
47016,HYESAN,DEMOCRATIC PEOPLE'S REPUBLIC OF KOREA,41.4,128.1667,714,27.9,54,1005.9,NE,2.0
47020,KANGGYE,DEMOCRATIC PEOPLE'S REPUBLIC OF KOREA,40.9667,126.6,306,29.6,48,1015.8,SE,3.0
47022,PUNGSAN,DEMOCRATIC PEOPLE'S REPUBLIC OF KOREA,40.8167,128.15,1200,23.8,72,-,S,1.0
47025,KIMCHAEK,DEMOCRATIC PEOPLE'S REPUBLIC OF KOREA,40.6667,129.2,23,-,-,1005.0,SE,2.0
47028,SUPUNG,DEMOCRATIC PEOPLE'S REPUBLIC OF KOREA,40.45,124.9333,76,28.7,80,1007.2,calm,-
47031,CHANGJIN,DEMOCRATIC PEOPLE'S REPUBLIC OF KOREA,40.3667,127.25,1080,25.0,63,-,NW,2.0
47035,SINUIJU,DEMOCRATIC PEOPLE'S REPUBLIC OF KOREA,40.1,124.3833,7,28.3,83,1005.4,SW,1.0
47037,KUSONG,DEMOCRATIC PEOPLE'S REPUBLIC OF KOREA,39.9833,125.25,99,28.9,92,1002.0,S,2.0
47039,HUICHON,DEMOCRATIC PEOPLE'S REPUBLIC OF KOREA,40.1667,126.25,155,29.9,70,1004.3,SW,1.0
47041,HAMHEUNG,DEMOCRATIC PEOPLE'S REPUBLIC OF KOREA,39.9333,127.55,22,32.0,60,1002.2,SE,2.0
47046,SINPO,DEMOCRATIC PEOPLE'S REPUBLIC OF KOREA,40.0333,128.1833,19,-,-, 998.6,SW,2.0
47050,ANJU,DEMOCRATIC PEOPLE'S REPUBLIC OF KOREA,39.6167,125.65,27,29.3,75,1004.6,SW,1.0
47052,YANGDOK,DEMOCRATIC PEOPLE'S REPUBLIC OF KOREA,39.2167,126.65,279,29.2,71,1005.7,NW,3.0
47055,WONSAN,DEMOCRATIC PEOPLE'S REPUBLIC OF KOREA,39.1833,127.4333,36,32.7,57,1003.7,W,2.0
47058,PYONGYANG,DEMOCRATIC PEOPLE'S REPUBLIC OF KOREA,39.0333,125.7833,36,30.4,82,1005.1,NW,2.0
47060,NAMPO,DEMOCRATIC PEOPLE'S REPUBLIC OF KOREA,38.7167,125.3833,47,29.7,86,1005.8,W,3.0
47061,CHANGJON,DEMOCRATIC PEOPLE'S REPUBLIC OF KOREA,38.7333,128.1833,34,-,-,1006.7,calm,-
47065,SARIWON,DEMOCRATIC PEOPLE'S REPUBLIC OF KOREA,38.5167,125.7667,52,28.6,86,1006.3,NW,3.0
47067,SINGYE,DEMOCRATIC PEOPLE'S REPUBLIC OF KOREA,38.5,126.5333,97,28.7,79,-,SE,4.0
47068,RYONGYON,DEMOCRATIC PEOPLE'S REPUBLIC OF KOREA,38.15,124.8833,6,29.8,79,1005.5,W,3.0
47069,HAEJU,DEMOCRATIC PEOPLE'S REPUBLIC OF KOREA,38.0333,125.7,81,30.2,73,1005.5,W,4.0
47070,KAESONG,DEMOCRATIC PEOPLE'S REPUBLIC OF KOREA,37.9667,126.5667,70,30.4,75,1005.6,SW,4.0
47075,PYONGGANG,DEMOCRATIC PEOPLE'S REPUBLIC OF KOREA,38.4167,127.2833,352,28.4,70,1004.9,calm,-
47090,SOKCHO,REPUBLIC OF KOREA,38.25,128.55,19,31.3,60,1003.8,S,3.1
47093,Bukchuncheon:,REPUBLIC OF KOREA,37.9333,127.75,95,31.9,68,1004.2,S,1.6
47095,CHEORWON,REPUBLIC OF KOREA,38.1333,127.3,155,28.6,81,1004.7,N,0.5
47097,ICHEON,REPUBLIC OF KOREA,37.25,127.4833,79,28.7,81,1005.5,N,0.5
47098,DONGDUCHEON,REPUBLIC OF KOREA,37.9,127.05,110,29.8,75,1004.4,W,1.6
47099,PAJU,REPUBLIC OF KOREA,37.8833,126.75,30,29.7,74,1005.0,NW,1.6
47100,DAEGWALLYEONG,REPUBLIC OF KOREA,37.6667,128.7167,773,27.2,62,1004.4,W,3.1
47101,CHUNCHEON,REPUBLIC OF KOREA,37.9,127.7333,78,31.7,59,1003.7,calm,-
47102,BAENGNYEONGDO,REPUBLIC OF KOREA,37.95,124.6167,146,27.1,80,1004.1,S,1.6
47104,BUKGANGNEUNG,REPUBLIC OF KOREA,37.8,128.85,80,28.7,73,1003.7,E,1.0
47105,GANGNEUNG,REPUBLIC OF KOREA,37.75,128.8833,27,32.8,61,1003.7,N,2.1
47106,DONGHAE,REPUBLIC OF KOREA,37.5,129.1167,41,29.0,77,1004.3,NE,1.6
47108,SEOUL,REPUBLIC OF KOREA,37.5667,126.95,87,32.3,58,1003.8,W,3.1
47112,INCHEON,REPUBLIC OF KOREA,37.4667,126.6167,69,30.6,66,1004.8,W,3.1
47114,WONJU,REPUBLIC OF KOREA,37.3333,127.9333,150,30.7,62,1004.6,W,1.0
47115,ULLEUNGDO,REPUBLIC OF KOREA,37.4667,130.8833,224,28.3,88,1005.1,S,2.6
47119,SUWON,REPUBLIC OF KOREA,37.2667,126.9833,37,32.1,57,1004.4,W,2.6
47121,YEONGWOL,REPUBLIC OF KOREA,37.1667,128.45,241,29.2,71,1004.7,E,1.0
47127,CHUNGJU,REPUBLIC OF KOREA,36.9667,127.95,116,28.7,77,1004.1,W,1.0
47129,SEOSAN,REPUBLIC OF KOREA,36.7667,126.4833,30,31.9,65,1005.0,NW,3.1
47130,ULJIN,REPUBLIC OF KOREA,36.9833,129.4,51,28.1,87,1004.8,SE,2.1
47131,CHEONGJU,REPUBLIC OF KOREA,36.6333,127.4333,58,33.4,54,1003.7,W,1.6
47133,DAEJEON,REPUBLIC OF KOREA,36.3667,127.3667,69,30.7,64,1004.3,E,1.6
47135,CHUPUNGNYEONG,REPUBLIC OF KOREA,36.2167,127.9833,245,30.7,68,1003.8,W,1.0
47136,ANDONG,REPUBLIC OF KOREA,36.5667,128.7,141,31.3,69,1004.6,N,1.0
47137,SANGJU,REPUBLIC OF KOREA,36.4,128.15,97,31.8,64,1003.3,S,0.5
47138,POHANG,REPUBLIC OF KOREA,36.0167,129.3667,3,32.0,62,1003.6,calm,-
47140,GUNSAN,REPUBLIC OF KOREA,36.0,126.75,24,31.5,63,1005.6,W,4.1
47143,DAEGU,REPUBLIC OF KOREA,35.8667,128.65,54,35.6,44,1003.3,W,3.1
47145,CHEONAN,REPUBLIC OF KOREA,36.7667,127.1167,25,31.5,64,1004.9,N,1.0
47146,JEONJU,REPUBLIC OF KOREA,35.8333,127.1167,62,32.2,65,1004.6,W,2.6
47150,BORYEONG,REPUBLIC OF KOREA,36.3167,126.55,16,31.0,67,1004.6,SW,1.0
47152,ULSAN,REPUBLIC OF KOREA,35.55,129.3167,35,30.9,65,1004.3,S,1.6
47154,GUMI,REPUBLIC OF KOREA,36.1167,128.3167,50,34.2,52,1004.1,N,0.5
47155,CHANGWON,REPUBLIC OF KOREA,35.1667,128.5667,38,30.9,70,1004.5,SE,4.1
47156,GWANGJU,REPUBLIC OF KOREA,35.1667,126.8833,73,31.7,62,1004.6,S,1.0
47157,GEOCHANG,REPUBLIC OF KOREA,35.6667,127.9,227,28.2,85,1004.8,W,1.0
47159,BUSAN,REPUBLIC OF KOREA,35.1,129.0167,70,30.8,76,1004.3,S,3.6
47162,TONGYEONG,REPUBLIC OF KOREA,34.8333,128.4333,33,28.5,77,1004.7,E,1.6
47165,MOKPO,REPUBLIC OF KOREA,34.8167,126.3667,39,31.1,69,1005.2,W,3.6
47168,YEOSU,REPUBLIC OF KOREA,34.7333,127.7333,65,29.9,74,1005.3,W,3.1
47169,HEUKSANDO,REPUBLIC OF KOREA,34.6833,125.45,77,30.4,73,1005.2,S,2.6
47170,WANDO,REPUBLIC OF KOREA,34.3833,126.7,36,32.6,65,1005.1,W,3.1
47171,JEONGEUP,REPUBLIC OF KOREA,35.55,126.85,46,33.1,64,1004.7,NW,2.6
47172,GOCHANG,REPUBLIC OF KOREA,35.3333,126.5833,56,32.4,65,1004.5,NW,3.1
47173,NAMWON,REPUBLIC OF KOREA,35.4167,127.3833,133,33.2,64,1004.5,N,1.6
47174,SUNCHEON,REPUBLIC OF KOREA,35.0167,127.3667,166,30.6,70,1003.5,W,1.6
47177,Hongseong:,REPUBLIC OF KOREA,36.65,126.6833,25,32.1,68,1005.2,W,2.1
47184,JEJU,REPUBLIC OF KOREA,33.5,126.5167,21,31.4,69,1005.4,NE,2.1
47185,GOSAN,REPUBLIC OF KOREA,33.2833,126.15,75,31.6,65,1005.6,SE,1.6
47188,SEONGSAN,REPUBLIC OF KOREA,33.3833,126.8667,19,31.5,70,1006.0,E,2.1
47189,SEOGWIPO,REPUBLIC OF KOREA,33.2333,126.55,50,31.4,71,1006.1,S,1.6
47192,JINJU,REPUBLIC OF KOREA,35.15,128.0333,29,32.6,68,1004.4,W,1.6
47401,WAKKANAI,JAPAN,45.4,141.6667,11,21.4,98,1006.2,N,2.1
47402,KITAMIESASHI,JAPAN,44.9333,142.5833,8,22.1,91,1006.1,S,1.0
47404,HABORO,JAPAN,44.35,141.7,9,24.8,89,1004.7,N,3.1
47405,OMU,JAPAN,44.5667,142.95,15,21.8,92,1006.0,N,2.6
47406,RUMOI,JAPAN,43.9333,141.6167,24,25.2,85,1005.1,NE,1.0
47407,ASAHIKAWA,JAPAN,43.75,142.3667,140,27.1,81,1004.9,N,2.6
47409,ABASHIRI,JAPAN,44.0167,144.2667,43,27.5,77,1005.9,S,4.1
47411,OTARU,JAPAN,43.1667,141.0,26,24.1,93,1005.3,SE,1.0
47412,SAPPORO,JAPAN,43.05,141.3167,26,25.7,87,1005.3,N,2.1
47413,IWAMIZAWA,JAPAN,43.2,141.7833,51,26.9,85,1005.0,S,4.1
47417,OBIHIRO,JAPAN,42.9167,143.2,43,25.3,91,1006.6,SE,1.6
47418,KUSHIRO,JAPAN,42.9833,144.3667,39,24.0,97,1007.8,SE,5.1
47420,NEMURO,JAPAN,43.3167,145.5833,27,21.6,100,1008.4,S,5.1
47421,SUTTSU,JAPAN,42.7833,140.2167,35,25.4,88,1005.0,SE,2.6
47423,MURORAN,JAPAN,42.3,140.9667,49,23.6,97,1005.2,NE,3.6
47424,TOMAKOMAI,JAPAN,42.6167,141.5333,7,24.0,95,1005.8,SW,1.0
47426,URAKAWA,JAPAN,42.15,142.7667,38,24.7,95,1006.0,SE,6.2
47428,ESASHI,JAPAN,41.8667,140.1167,12,24.9,88,1005.0,N,1.0
47430,HAKODATE,JAPAN,41.8167,140.75,43,25.6,89,1005.1,W,2.6
47433,KUTCHAN,JAPAN,42.9,140.75,188,24.7,90,1004.6,NW,2.6
47435,MOMBETSU,JAPAN,44.3333,143.35,17,22.8,87,1005.8,NW,2.6
47440,HIROO,JAPAN,42.2833,143.3167,34,21.8,100,1006.7,E,1.0
47512,OFUNATO,JAPAN,39.05,141.7,38,25.5,90,1004.6,SE,3.6
47520,SHINJO,JAPAN,38.75,140.3,102,26.9,77,1005.2,S,5.1
47570,WAKAMATSU,JAPAN,37.4833,139.9,213,24.2,88,1005.5,NW,1.6
47574,FUKAURA,JAPAN,40.6333,139.9167,67,23.6,97,1005.0,NE,1.6
47575,AOMORI,JAPAN,40.8167,140.7667,4,27.3,86,1004.6,NW,3.6
47576,MUTSU,JAPAN,41.2833,141.2,4,26.3,85,1005.1,E,1.6
47581,HACHINOHE,JAPAN,40.5167,141.5167,28,25.8,89,1004.8,E,4.6
47582,AKITA,JAPAN,39.7167,140.0833,21,27.0,77,1004.9,NW,4.1
47584,MORIOKA,JAPAN,39.6833,141.15,155,23.2,98,1004.8,NE,4.1
47585,MIYAKO,JAPAN,39.6333,141.95,47,24.6,100,1005.1,NW,1.0
47587,SAKATA,JAPAN,38.9,139.8333,4,26.9,75,1005.2,N,4.1
47588,YAMAGATA,JAPAN,38.25,140.3333,153,25.2,90,1004.6,E,2.1
47590,SENDAI,JAPAN,38.25,140.8833,43,26.3,89,1004.6,S,2.6
47592,ISHINOMAKI,JAPAN,38.4167,141.2833,42,27.4,74,1004.4,E,1.6
47595,FUKUSHIMA,JAPAN,37.75,140.4667,69,26.5,88,1004.2,S,1.0
47597,SHIRAKAWA,JAPAN,37.1167,140.2,356,24.3,98,1004.5,N,2.1
47598,ONAHAMA,JAPAN,36.9333,140.9,5,26.2,92,1004.6,NE,1.6
47600,WAJIMA,JAPAN,37.3833,136.8833,6,27.0,77,1005.3,NE,4.6
47602,AIKAWA,JAPAN,38.0167,138.2333,7,27.1,81,1005.2,N,3.1
47604,NIIGATA,JAPAN,37.8833,139.0167,5,27.4,75,1004.9,N,2.1
47605,KANAZAWA,JAPAN,36.5833,136.6333,33,28.8,72,1005.1,N,3.6
47606,FUSHIKI,JAPAN,36.7833,137.05,13,27.7,83,1005.1,NE,2.6
47607,TOYAMA,JAPAN,36.7,137.2,17,27.6,83,1004.9,N,3.6
47610,NAGANO,JAPAN,36.65,138.1833,419,25.9,79,1003.7,N,4.6
47612,TAKADA,JAPAN,37.1,138.2333,14,27.3,84,1005.0,NW,2.1
47615,UTSUNOMIYA,JAPAN,36.5333,139.8667,140,25.8,93,1003.6,N,2.6
47616,FUKUI,JAPAN,36.05,136.2167,17,28.7,70,1005.0,N,4.1
47617,TAKAYAMA,JAPAN,36.15,137.25,561,27.6,69,1002.8,NW,4.6
47618,MATSUMOTO,JAPAN,36.2333,137.9667,611,27.0,68,1002.1,N,5.1
47620,SUWA,JAPAN,36.0333,138.1,762,26.9,76,1001.4,W,7.2
47622,KARUIZAWA,JAPAN,36.3333,138.5333,1004,22.5,98,-,NE,2.6
47624,MAEBASHI,JAPAN,36.4,139.05,114,26.4,86,1003.7,E,3.1
47626,KUMAGAYA,JAPAN,36.15,139.3667,31,26.0,83,1002.5,NE,5.7
47629,MITO,JAPAN,36.3667,140.4667,31,26.8,81,1003.8,NE,2.6
47631,TSURUGA,JAPAN,35.65,136.05,12,28.9,68,1005.0,NW,3.1
47632,GIFU,JAPAN,35.4,136.75,17,33.7,49,1001.8,W,5.7
47636,NAGOYA,JAPAN,35.1667,136.95,56,34.0,50,1001.6,NW,3.6
47637,IIDA,JAPAN,35.5167,137.8167,528,30.1,63,1001.0,S,5.1
47638,KOFU,JAPAN,35.6667,138.55,281,30.7,65,1001.6,E,1.0
47639,FUJISAN,JAPAN,35.35,138.7167,3777,9.1,92,-,-,-
47640,KAWAGUCHIKO,JAPAN,35.5,138.75,861,23.8,95,-,NW,1.0
47641,CHICHIBU,JAPAN,35.9833,139.0667,233,26.3,93,1003.1,W,1.6
47648,CHOSHI,JAPAN,35.7333,140.85,28,28.7,85,1003.7,E,3.1
47649,UENO,JAPAN,34.75,136.1333,160,30.8,57,1003.0,N,4.1
47651,TSU,JAPAN,34.7333,136.5167,18,33.0,54,1002.4,NW,4.1
47653,IRAKO,JAPAN,34.6167,137.0833,7,30.7,73,1002.6,S,4.6
47654,HAMAMATSU,JAPAN,34.75,137.7,47,30.2,80,1003.1,S,4.1
47655,OMAEZAKI,JAPAN,34.6,138.2,46,29.8,79,1003.4,S,3.1
47656,SHIZUOKA,JAPAN,34.9667,138.4,15,29.7,82,1003.4,S,1.6
47657,MISHIMA,JAPAN,35.1,138.9167,21,30.8,70,1002.5,W,3.6
47662,TOKYO,JAPAN,35.6833,139.75,24,30.4,73,1002.6,SE,3.6
47663,OWASE,JAPAN,34.0667,136.1833,17,30.6,75,1002.7,E,3.1
47666,IROZAKI,JAPAN,34.6,138.8333,53,28.3,86,1003.4,NE,1.0
47668,AJIRO,JAPAN,35.0333,139.0833,67,28.7,84,1003.1,S,1.0
47670,YOKOHAMA,JAPAN,35.4333,139.65,42,30.0,76,1003.3,SW,3.1
47672,TATEYAMA,JAPAN,34.9833,139.85,7,28.7,83,1003.0,SE,2.6
47674,KATSUURA,JAPAN,35.15,140.3,13,28.3,90,1003.3,E,2.1
47675,OSHIMA,JAPAN,34.7333,139.35,75,28.4,84,1003.3,NE,2.1
47677,MIYAKEJIMA,JAPAN,34.1167,139.5167,39,27.8,85,1002.9,SE,1.0
47678,HACHIJOJIMA,JAPAN,33.1167,139.7667,152,26.9,87,1003.1,E,1.6
47682,CHIBA,JAPAN,35.6,140.1,6,30.0,77,1003.6,E,5.1
47684,YOKKAICHI,JAPAN,34.9333,136.5667,57,31.8,58,1002.2,N,2.6
47690,NIKKO,JAPAN,36.7333,139.5,1294,19.2,92,-,SW,3.6
47740,SAIGO,JAPAN,36.2,133.3333,28,28.2,72,1005.4,NE,3.1
47741,MATSUE,JAPAN,35.45,133.05,22,29.4,70,1005.2,NE,3.6
47742,SAKAI,JAPAN,35.5333,133.2333,3,29.7,68,1005.3,NE,2.1
47744,YONAGO,JAPAN,35.4333,133.3333,8,30.1,61,1005.1,NE,3.6
47746,TOTTORI,JAPAN,35.4833,134.2333,15,29.4,68,1005.5,N,3.6
47747,TOYOOKA,JAPAN,35.5333,134.8167,5,28.6,72,1005.5,N,3.1
47750,MAIZURU,JAPAN,35.45,135.3167,4,28.4,76,1005.3,N,5.1
47754,HAGI,JAPAN,34.4,131.4,3,30.3,72,1004.6,N,3.1
47755,HAMADA,JAPAN,34.8833,132.0667,20,29.7,72,1004.8,NE,3.6
47756,TSUYAMA,JAPAN,35.05,134.0,147,30.6,60,1003.8,NW,1.0
47759,KYOTO,JAPAN,35.0,135.7167,52,32.1,53,1003.1,N,2.6
47761,HIKONE,JAPAN,35.2667,136.2333,92,29.9,68,1003.7,N,5.1
47762,SHIMONOSEKI,JAPAN,33.9333,130.9167,19,32.8,66,1004.0,N,2.6
47765,HIROSHIMA,JAPAN,34.3833,132.45,54,33.6,49,1003.1,SW,3.1
47766,KURE,JAPAN,34.2333,132.55,5,32.2,62,1003.3,W,3.1
47767,FUKUYAMA,JAPAN,34.4333,133.2333,3,32.7,64,1003.4,S,2.1
47768,OKAYAMA,JAPAN,34.6833,133.9167,6,34.1,47,1003.2,N,5.1
47769,HIMEJI,JAPAN,34.8333,134.6667,39,33.0,55,1003.0,E,3.1
47770,KOBE,JAPAN,34.6833,135.2,30,33.2,52,1002.7,N,4.6
47772,OSAKA,JAPAN,34.6667,135.5167,83,33.5,50,1002.5,N,4.1
47776,SUMOTO,JAPAN,34.3333,134.9,112,31.8,64,1002.9,NW,2.1
47777,WAKAYAMA,JAPAN,34.2167,135.15,18,33.4,52,1002.6,N,2.6
47778,SHIONOMISAKI,JAPAN,33.45,135.75,69,28.7,91,1003.1,SE,1.0
47780,NARA,JAPAN,34.6833,135.8167,108,32.6,57,1002.5,N,3.6
47784,YAMAGUCHI,JAPAN,34.15,131.45,19,33.1,60,1003.6,NE,2.6
47800,IZUHARA,JAPAN,34.1833,129.2833,4,30.4,72,1005.0,E,1.6
47805,HIRADO,JAPAN,33.35,129.55,58,29.2,82,1004.7,N,3.6
47807,FUKUOKA,JAPAN,33.5667,130.3667,15,31.0,73,1004.4,N,5.1
47809,IIZUKA,JAPAN,33.65,130.6833,37,31.9,65,1003.9,NW,3.1
47812,SASEBO,JAPAN,33.15,129.7167,5,33.5,53,1003.5,N,4.1
47813,SAGA,JAPAN,33.25,130.3,33,34.1,51,1003.3,N,5.7
47814,HITA,JAPAN,33.3167,130.9167,84,35.3,43,1003.1,NE,3.1
47815,OITA,JAPAN,33.2333,131.6167,13,32.9,62,1003.7,N,2.1
47817,NAGASAKI,JAPAN,32.7333,129.8667,35,32.8,62,1003.4,SW,3.1
47818,UNZENDAKE,JAPAN,32.7333,130.25,679,29.7,63,1002.8,N,4.1
47819,KUMAMOTO,JAPAN,32.8,130.7,39,35.2,52,1002.6,NW,3.1
47822,NOBEOKA,JAPAN,32.5667,131.65,21,31.7,70,1003.5,S,2.1
47823,AKUNE,JAPAN,32.0167,130.2,42,29.5,83,1003.8,NW,2.6
47824,HITOYOSHI,JAPAN,32.2167,130.75,147,32.9,53,1002.7,SW,1.6
47827,KAGOSHIMA,JAPAN,31.55,130.5333,31,32.4,75,1003.2,SE,2.1
47829,MIYAKONOJO,JAPAN,31.7167,131.0667,155,29.2,86,1003.5,NE,3.6
47830,MIYAZAKI,JAPAN,31.9333,131.4,15,30.8,73,1003.6,E,2.6
47831,MAKURAZAKI,JAPAN,31.2667,130.2833,31,32.8,69,1003.4,NW,3.1
47835,ABURATSU,JAPAN,31.5667,131.4,14,30.9,84,1003.6,E,1.6
47836,YAKUSHIMA,JAPAN,30.3833,130.65,38,30.7,80,1004.0,N,1.0
47837,TANEGASHIMA,JAPAN,30.7167,130.9667,37,31.6,79,1003.7,W,3.6
47838,USHIBUKA,JAPAN,32.1833,130.0167,15,31.5,70,1003.6,W,3.6
47843,FUKUE,JAPAN,32.6833,128.8167,26,30.5,70,1004.6,N,4.6
47887,MATSUYAMA,JAPAN,33.8333,132.7667,34,31.2,68,1003.6,SW,3.1
47890,TADOTSU,JAPAN,34.2667,133.75,5,32.7,62,1003.2,W,2.1
47891,TAKAMATSU,JAPAN,34.3167,134.05,13,34.2,54,1003.0,NW,2.1
47892,UWAJIMA,JAPAN,33.2167,132.55,14,30.6,73,1003.2,NW,2.1
47893,KOCHI,JAPAN,33.5667,133.5333,4,30.5,82,1003.7,E,2.1
47895,TOKUSHIMA,JAPAN,34.0667,134.5667,6,33.5,52,1003.1,N,2.6
47897,SUKUMO,JAPAN,32.9167,132.6833,10,31.5,71,1002.8,S,2.1
47898,SHIMIZU,JAPAN,32.7167,133.0,33,30.8,80,1003.1,S,0.5
47899,MUROTOMISAKI,JAPAN,33.25,134.1667,186,28.0,85,1003.8,NE,2.6
47909,NAZE,JAPAN,28.3667,129.4833,7,31.8,68,1004.2,N,2.1
47912,YONAGUNIJIMA,JAPAN,24.4667,123.0,36,29.8,84,1004.5,N,3.6
47917,IRIOMOTEJIMA,JAPAN,24.4167,123.75,11,30.3,81,1004.3,N,2.1
47918,ISHIGAKIJIMA,JAPAN,24.3333,124.15,14,32.0,66,1003.8,N,3.1
47927,MIYAKOJIMA,JAPAN,24.7833,125.2667,41,29.9,83,1004.0,N,3.6
47929,KUMEJIMA,JAPAN,26.3333,126.8,6,31.3,79,1003.9,NE,3.1
47936,NAHA,JAPAN,26.2,127.6833,50,31.6,74,1004.0,E,3.6
47940,NAGO,JAPAN,26.5833,127.95,7,30.8,77,1004.2,SE,1.6
47942,OKINOERABU,JAPAN,27.4167,128.7,29,30.7,76,1004.6,E,2.6
47945,MINAMIDAITOJIMA,JAPAN,25.8167,131.2167,20,30.7,77,1003.9,NE,3.6
47971,CHICHIJIMA,JAPAN,27.0833,142.1833,8,28.5,93,1000.5,SE,2.6
47991,MINAMITORISHIMA,JAPAN,24.2833,153.9833,8,28.0,82,1012.2,SW,3.1
50136,MOHE,CHINA,52.9667,122.5167,438,15.9,90,1005.1,W,2.0
50353,HUMA,CHINA,51.7333,126.6333,175,24.8,72,1001.6,N,2.0
50434,TULIHE,CHINA,50.4833,121.6833,737,20.1,76,1003.8,W,3.0
50468,AIHUI,CHINA,50.25,127.45,166,23.9,76,1002.5,S,2.0
50527,HAILAR,CHINA,49.25,119.7,650,25.4,53,1003.9,W,4.0
50727,ARXAN,CHINA,47.1667,119.9333,997,23.2,46,1005.4,NW,4.0
50774,YICHUN,CHINA,47.7,128.8333,259,26.8,70,1002.9,NE,2.0
50854,ANDA,CHINA,46.3833,125.3167,150,30.8,59,1001.4,S,3.0
50915,ULIASTAI,CHINA,45.5167,116.9667,841,27.4,37,1005.1,NW,3.0
50949,QIAN GORLOS,CHINA,45.0833,124.8667,136,30.7,69,1002.8,SW,3.0
50978,JIXI,CHINA,45.3,130.9167,273,26.7,73,1003.7,E,2.0
52203,HAMI,CHINA,42.8167,93.5167,739,35.7,24, 995.7,NW,1.0
52495,BAYAN MOD,CHINA,40.75,104.5,1329,29.6,35, 995.2,SE,6.0
52533,JIUQUAN,CHINA,39.7667,98.4833,1478,34.2,18, 991.7,SE,2.0
52602,LENGHU,CHINA,38.8333,93.3833,2771,27.1,21, 988.4,NE,6.0
52681,MINQIN,CHINA,38.6333,103.0833,1369,29.9,36, 997.9,E,4.0
52754,GANGCA,CHINA,37.3333,100.1333,3302,18.4,37, 999.9,SW,2.0
52818,GOLMUD,CHINA,36.4167,94.9,2809,25.4,34, 991.4,E,1.0
52983,YU ZHONG,CHINA,35.8667,104.15,1875,27.7,38, 997.6,NE,1.0
53149,MANDAL,CHINA,42.5333,110.1333,1223,31.6,19,1001.2,SE,3.0
53192,ABAG QI,CHINA,44.0167,115.0,1147,29.0,29,1003.5,N,2.0
53463,HOHHOT,CHINA,40.85,111.5667,1153,28.8,43,1003.7,S,3.0
53564,HEQU,CHINA,39.35,111.2,1037,28.3,49,1002.7,S,2.0
53845,YAN AN,CHINA,36.5833,109.45,1181,24.4,76,1002.9,N,1.0
53959,YUNCHENG,CHINA,35.1,111.05,376,29.6,71,1000.0,N,4.0
54161,CHANGCHUN,CHINA,43.9,125.2167,238,29.8,55,1003.4,W,3.0
54208,DUOLUN,CHINA,42.1833,116.4667,1247,30.4,30,1002.8,N,1.0
54236,ZHANGWU,CHINA,42.4167,122.5333,84,29.6,72,1003.4,S,4.0
54423,CHENGDE,CHINA,40.9667,117.9167,423,29.7,64,1003.9,W,2.0
54539,LETING,CHINA,39.4333,118.9,12,28.7,86,1004.6,S,2.0
54618,POTOU,CHINA,38.0833,116.55,13,29.3,97,1004.6,NE,2.0
54776,CHENGSHANTOU,CHINA,37.4,122.6833,47,25.0,100,1004.7,SE,3.0
54823,JINAN,CHINA,36.6,117.05,169,25.4,90,1004.9,E,5.0
55299,NAGQU,CHINA,31.4833,92.0667,4508,18.2,33, 985.3,SW,6.0
55591,LHASA,CHINA,29.6667,91.1333,3650,23.7,36, 987.1,W,2.0
56004,TUOTUOHE,CHINA,34.2167,92.4333,4535,11.8,67, 992.9,S,3.0
56033,MADOI,CHINA,34.9167,98.2167,4273,12.7,68, 995.5,N,2.0
56046,DARLAG,CHINA,33.75,99.65,3968,13.5,68, 997.0,NE,1.0
56096,WUDU,CHINA,33.4,104.9167,1079,29.6,58, 996.3,S,2.0
56146,GARZE,CHINA,31.6167,100.0,3394,25.4,34, 987.5,E,2.0
56196,MIANYANG,CHINA,31.45,104.7333,522,33.7,60, 996.6,E,3.0
56287,YA'AN,CHINA,29.9833,103.0,629,34.0,58, 996.4,E,1.0
56444,DEQEN,CHINA,28.45,98.8833,3320,23.1,38, 995.5,E,3.0
56492,YIBIN,CHINA,28.8,104.6,342,35.5,54, 995.6,E,2.0
56751,DALI,CHINA,25.7,100.1833,1992,25.8,56,1000.8,N,1.0
56951,LINCANG,CHINA,23.95,100.2167,1503,21.4,78,1005.2,N,3.0
56964,SIMAO,CHINA,22.7667,100.9833,1303,26.0,70,1003.4,SW,6.0
57014,BEIDAO,CHINA,34.5667,105.8667,1085,27.4,69, 999.1,SE,4.0
57178,NANYANG,CHINA,33.1,112.4833,181,32.7,62,1001.4,W,1.0
57348,FENGJIE,CHINA,31.0167,109.5333,303,37.3,49, 997.8,NE,1.0
57399,MACHENG,CHINA,31.1333,114.95,75,37.4,49,1001.5,S,3.0
57554,SANGZHI,CHINA,29.4,110.1667,322,36.1,42,1000.1,W,4.0
57687,CHANGSHA,CHINA,28.1,112.7833,120,35.9,53,1002.1,S,3.0
57816,GUIYANG,CHINA,26.5833,106.7333,1223,30.3,51,1000.6,SE,4.0
57957,GUILIN,CHINA,25.3333,110.3,166,36.8,40,1002.6,SW,3.0
58040,GANYU,CHINA,34.85,119.1333,10,32.4,62,1003.4,N,1.0
58141,HUAIYIN,CHINA,33.6333,118.9333,13,32.3,71,1003.5,S,2.0
58265,LUSI,CHINA,32.0667,121.6,10,32.0,74,1004.4,E,6.0
58472,SHENGSI,CHINA,30.7333,122.45,81,30.0,80,1005.1,SE,4.0
58506,LU SHAN,CHINA,29.5833,115.9833,1165,29.5,63,1004.8,W,1.0
58666,DACHEN DAO,CHINA,28.45,121.8833,84,30.4,91,1005.2,E,2.0
58813,GUANGCHANG,CHINA,26.85,116.3333,142,35.6,51,1003.2,E,3.0
58944,PINGTAN,CHINA,25.5167,119.7833,31,31.2,68,1004.5,SE,3.0
59117,MEI XIAN,CHINA,24.2833,116.0667,116,35.9,50,1003.8,SW,1.0
59211,BAISE,CHINA,23.9,106.6,177,34.4,60,1001.3,NE,3.0
59278,GAOYAO,CHINA,23.05,112.4667,41,33.9,65,1004.0,S,3.0
59417,LONGZHOU,CHINA,22.3667,106.75,129,35.8,56,1002.0,SE,3.0
59758,HAIKOU,CHINA,20.0,110.25,64,35.6,44,1005.4,NW,3.0
59948,SANYA,CHINA,18.2167,109.5833,420,28.5,81,1006.6,NE,1.0
59981,XISHA DAO,CHINA,16.8333,112.3333,5,32.4,64,1006.8,SW,1.0
91165,LIHUE,"KAUAI, HAWAII, ISLANDS IN THE PACIFIC OCEAN NORTH OF THE EQUATOR",21.9833,-159.3333,31,25.6,73,1020.1,E,6.7
91182,HONOLULU,"OAHU, HAWAII, ISLANDS IN THE PACIFIC OCEAN NORTH OF THE EQUATOR",21.35,-157.9333,5,25.6,71,1019.1,E,5.1
91190,KAHULUI AIRPORT,"MAUI, HAWAII, ISLANDS IN THE PACIFIC OCEAN NORTH OF THE EQUATOR",20.9,-156.4333,20,23.3,84,1019.4,NE,6.7
91212,WEATHER FORECAST OFFICE,"GUAM, MARIANA IS., ISLANDS IN THE PACIFIC OCEAN NORTH OF THE EQUATOR",13.4667,144.7833,75,28.3,77,1010.5,SE,1.6
91285,HILO HI,"HAWAII, ISLANDS IN THE PACIFIC OCEAN NORTH OF THE EQUATOR",19.7167,-155.05,10,23.3,93,1020.1,S,1.6
91376,MAJURO/MARSHALL IS. INTNL.,ISLANDS IN THE PACIFIC OCEAN NORTH OF THE EQUATOR,7.0667,171.2833,4,29.0,79,-,NW,5.7
91490,CHRISTMAS ISLAND,ISLANDS IN THE PACIFIC OCEAN NORTH OF THE EQUATOR,1.9833,-157.4833,3,27.4,80,1012.6,E,1.6
