ID,City,Country,Latitude,Longitude,Height,Temperature,Humidity,Pressure,Wind Direction,Wind Speed
45032,TA KWU LING,"HONG KONG, CHINA",22.5167,114.15,14,23.6,89,1008.3,SE,6.0
45035,LAU FAU SHAN,"HONG KONG, CHINA",22.4667,113.9833,35,23.2,96,1008.5,E,5.0
45039,SHA TIN,"HONG KONG, CHINA",22.4,114.2,12,23.4,93,1009.3,E,3.0
91334,WEATHER SERVICE OFFICE,"CHUUK, ECI, ISLANDS IN THE PACIFIC OCEAN NORTH OF THE EQUATOR",7.45,151.8333,3,27.6,91,1009.4,NE,4.1
91408,WEATHER SERVICE OFFICE,"KOROR, PALAU WCI., ISLANDS IN THE PACIFIC OCEAN NORTH OF THE EQUATOR",7.3333,134.4833,29,25.8,95,1009.8,calm,-
91490,CHRISTMAS ISLAND,ISLANDS IN THE PACIFIC OCEAN NORTH OF THE EQUATOR,1.9833,-157.4833,3,29.1,75,1010.7,E,3.6
