ID,City,Country,Latitude,Longitude,Height,Temperature,Humidity,Pressure,Wind Direction,Wind Speed
47401,WAKKANAI,JAPAN,45.4,141.6667,11,10.9,71,1014.6,SW,5.1
47402,KITAMIESASHI,JAPAN,44.9333,142.5833,8,11.9,48,1014.3,N,3.6
47404,HABORO,JAPAN,44.35,141.7,9,12.1,64,1015.6,SW,5.1
47405,OMU,JAPAN,44.5667,142.95,15,11.4,45,1014.2,N,4.1
47406,RUMOI,JAPAN,43.9333,141.6167,24,11.8,65,1015.7,NW,2.6
47407,ASAHIKAWA,JAPAN,43.75,142.3667,140,16.8,25,1015.0,W,5.1
47409,ABASHIRI,JAPAN,44.0167,144.2667,43,12.0,50,1014.3,N,4.1
47411,OTARU,JAPAN,43.1667,141.0,26,12.6,74,1016.3,NE,1.0
47412,SAPPORO,JAPAN,43.05,141.3167,26,15.8,35,1016.1,N,2.6
47413,IWAMIZAWA,JAPAN,43.2,141.7833,51,17.0,25,1016.1,NW,4.6
47417,OBIHIRO,JAPAN,42.9167,143.2,43,18.2,24,1014.0,NW,6.2
47418,KUSHIRO,JAPAN,42.9833,144.3667,39,11.7,70,1013.6,SW,1.0
47420,NEMURO,JAPAN,43.3167,145.5833,27,13.2,66,1014.0,E,0.5
47421,SUTTSU,JAPAN,42.7833,140.2167,35,13.0,61,1016.6,NE,1.0
47423,MURORAN,JAPAN,42.3,140.9667,49,16.7,28,1016.3,NW,5.1
47424,TOMAKOMAI,JAPAN,42.6167,141.5333,7,15.6,51,1016.1,S,1.6
47426,URAKAWA,JAPAN,42.15,142.7667,38,10.6,83,1016.1,W,3.6
47428,ESASHI,JAPAN,41.8667,140.1167,12,13.8,81,1018.2,W,4.1
47430,HAKODATE,JAPAN,41.8167,140.75,43,15.6,55,1017.5,SW,3.6
47433,KUTCHAN,JAPAN,42.9,140.75,188,14.4,45,1016.3,NW,4.1
47435,MOMBETSU,JAPAN,44.3333,143.35,17,12.9,31,1014.4,NW,4.1
47440,HIROO,JAPAN,42.2833,143.3167,34,17.8,46,1013.7,W,5.1
47512,OFUNATO,JAPAN,39.05,141.7,38,21.6,26,1018.2,NW,2.6
47520,SHINJO,JAPAN,38.75,140.3,102,20.2,25,1018.9,N,4.6
47570,WAKAMATSU,JAPAN,37.4833,139.9,213,23.3,25,1018.4,N,3.6
47574,FUKAURA,JAPAN,40.6333,139.9167,67,14.2,69,1018.7,S,5.1
47575,AOMORI,JAPAN,40.8167,140.7667,4,18.8,51,1017.9,SW,6.7
47576,MUTSU,JAPAN,41.2833,141.2,4,16.5,59,1017.8,SW,3.6
47581,HACHINOHE,JAPAN,40.5167,141.5167,28,18.3,53,1017.5,W,9.8
47582,AKITA,JAPAN,39.7167,140.0833,21,17.9,32,1019.7,SW,3.6
47584,MORIOKA,JAPAN,39.6833,141.15,155,18.8,32,1018.7,W,4.6
47585,MIYAKO,JAPAN,39.6333,141.95,47,21.0,35,1017.6,W,2.6
47587,SAKATA,JAPAN,38.9,139.8333,4,19.4,28,1019.6,W,2.6
47588,YAMAGATA,JAPAN,38.25,140.3333,153,22.9,23,1018.5,SW,2.6
47590,SENDAI,JAPAN,38.25,140.8833,43,19.8,58,1019.1,SE,3.1
47592,ISHINOMAKI,JAPAN,38.4167,141.2833,42,17.8,64,1019.4,SE,3.1
47595,FUKUSHIMA,JAPAN,37.75,140.4667,69,24.4,23,1018.1,NW,3.6
47597,SHIRAKAWA,JAPAN,37.1167,140.2,356,20.8,35,1018.6,SW,4.6
47598,ONAHAMA,JAPAN,36.9333,140.9,5,19.4,57,1019.6,SW,7.7
47600,WAJIMA,JAPAN,37.3833,136.8833,6,22.0,22,1018.2,SW,4.6
47602,AIKAWA,JAPAN,38.0167,138.2333,7,19.8,31,1019.0,SW,2.1
47604,NIIGATA,JAPAN,37.8833,139.0167,5,19.9,41,1019.3,NW,1.6
47605,KANAZAWA,JAPAN,36.5833,136.6333,33,23.0,27,1018.9,SW,2.1
47606,FUSHIKI,JAPAN,36.7833,137.05,13,18.7,56,1019.1,E,2.6
47607,TOYAMA,JAPAN,36.7,137.2,17,22.3,31,1019.0,N,2.1
47610,NAGANO,JAPAN,36.65,138.1833,419,22.5,32,1016.6,N,4.1
47612,TAKADA,JAPAN,37.1,138.2333,14,22.1,27,1019.2,NW,2.6
47615,UTSUNOMIYA,JAPAN,36.5333,139.8667,140,22.7,23,1019.4,S,6.7
47616,FUKUI,JAPAN,36.05,136.2167,17,25.5,33,1018.9,SW,3.6
47617,TAKAYAMA,JAPAN,36.15,137.25,561,22.5,25,1017.9,S,5.7
47618,MATSUMOTO,JAPAN,36.2333,137.9667,611,23.9,25,1015.3,S,5.1
47620,SUWA,JAPAN,36.0333,138.1,762,22.0,29,1016.1,S,3.6
47622,KARUIZAWA,JAPAN,36.3333,138.5333,1004,17.1,35,1545 m (850) ,E,3.1
47624,MAEBASHI,JAPAN,36.4,139.05,114,24.3,24,1018.6,E,4.6
47626,KUMAGAYA,JAPAN,36.15,139.3667,31,23.7,30,1019.1,SE,4.6
47629,MITO,JAPAN,36.3667,140.4667,31,22.8,32,1019.9,S,4.1
47631,TSURUGA,JAPAN,35.65,136.05,12,24.2,39,1019.6,S,5.7
47632,GIFU,JAPAN,35.4,136.75,17,23.0,31,1021.3,S,3.6
47636,NAGOYA,JAPAN,35.1667,136.95,56,22.2,33,1021.4,S,3.6
47637,IIDA,JAPAN,35.5167,137.8167,528,22.2,32,1018.1,W,5.1
47638,KOFU,JAPAN,35.6667,138.55,281,22.7,41,1018.4,SW,7.2
47640,KAWAGUCHIKO,JAPAN,35.5,138.75,861,17.0,56,1550 m (850) ,W,5.1
47641,CHICHIBU,JAPAN,35.9833,139.0667,233,23.2,33,1017.6,E,5.1
47648,CHOSHI,JAPAN,35.7333,140.85,28,19.1,50,1021.2,S,5.7
47649,UENO,JAPAN,34.75,136.1333,160,23.0,48,1020.1,E,3.6
47651,TSU,JAPAN,34.7333,136.5167,18,19.8,73,1021.6,E,6.2
47653,IRAKO,JAPAN,34.6167,137.0833,7,20.4,48,1021.7,S,3.1
47654,HAMAMATSU,JAPAN,34.75,137.7,47,20.2,56,1022.0,SW,5.1
47655,OMAEZAKI,JAPAN,34.6,138.2,46,20.1,70,1022.2,SW,5.1
47656,SHIZUOKA,JAPAN,34.9667,138.4,15,22.3,45,1020.9,S,3.1
47657,MISHIMA,JAPAN,35.1,138.9167,21,21.2,45,1021.3,W,4.6
47662,TOKYO,JAPAN,35.6833,139.75,24,20.2,48,1020.1,SE,6.2
47663,OWASE,JAPAN,34.0667,136.1833,17,20.6,60,1021.7,NE,3.6
47666,IROZAKI,JAPAN,34.6,138.8333,53,19.7,61,1022.1,W,3.1
47668,AJIRO,JAPAN,35.0333,139.0833,67,21.7,50,1020.7,W,4.6
47670,YOKOHAMA,JAPAN,35.4333,139.65,42,21.0,48,1020.4,S,5.1
47672,TATEYAMA,JAPAN,34.9833,139.85,7,20.6,46,1021.7,S,5.7
47674,KATSUURA,JAPAN,35.15,140.3,13,19.0,69,1022.0,S,3.1
47675,OSHIMA,JAPAN,34.7333,139.35,75,20.0,62,1021.9,S,5.1
47677,MIYAKEJIMA,JAPAN,34.1167,139.5167,39,20.3,56,1022.4,W,3.1
47678,HACHIJOJIMA,JAPAN,33.1167,139.7667,152,18.9,58,1022.4,NE,1.6
47682,CHIBA,JAPAN,35.6,140.1,6,22.6,30,1020.5,S,5.1
47684,YOKKAICHI,JAPAN,34.9333,136.5667,57,19.9,67,1021.7,SE,2.1
47690,NIKKO,JAPAN,36.7333,139.5,1294,14.0,46,1549 m (850) ,NE,1.0
47740,SAIGO,JAPAN,36.2,133.3333,28,22.3,34,1017.9,W,5.1
47741,MATSUE,JAPAN,35.45,133.05,22,22.7,39,1018.3,W,6.2
47742,SAKAI,JAPAN,35.5333,133.2333,3,23.2,45,1018.4,E,2.6
47744,YONAGO,JAPAN,35.4333,133.3333,8,23.3,44,1018.5,NE,2.6
47746,TOTTORI,JAPAN,35.4833,134.2333,15,22.3,33,1019.5,N,4.1
47747,TOYOOKA,JAPAN,35.5333,134.8167,5,25.0,29,1018.6,N,2.6
47750,MAIZURU,JAPAN,35.45,135.3167,4,24.8,23,1019.2,W,2.1
47754,HAGI,JAPAN,34.4,131.4,3,21.7,49,1018.9,N,1.6
47755,HAMADA,JAPAN,34.8833,132.0667,20,21.9,35,1018.8,SW,5.1
47756,TSUYAMA,JAPAN,35.05,134.0,147,22.9,37,1019.5,SE,3.1
47759,KYOTO,JAPAN,35.0,135.7167,52,24.2,18,1020.3,S,4.1
47761,HIKONE,JAPAN,35.2667,136.2333,92,22.0,52,1020.3,N,1.6
47762,SHIMONOSEKI,JAPAN,33.9333,130.9167,19,22.2,42,1019.3,SE,1.6
47765,HIROSHIMA,JAPAN,34.3833,132.45,54,23.7,26,1019.7,S,2.6
47766,KURE,JAPAN,34.2333,132.55,5,22.0,43,1020.0,SW,4.1
47767,FUKUYAMA,JAPAN,34.4333,133.2333,3,22.1,46,1019.9,S,2.1
47768,OKAYAMA,JAPAN,34.6833,133.9167,6,22.6,38,1020.5,SE,3.1
47769,HIMEJI,JAPAN,34.8333,134.6667,39,20.2,34,1021.1,S,4.1
47770,KOBE,JAPAN,34.6833,135.2,30,19.1,54,1021.7,SW,5.1
47772,OSAKA,JAPAN,34.6667,135.5167,83,19.9,44,1021.2,SW,3.6
47776,SUMOTO,JAPAN,34.3333,134.9,112,18.7,58,1020.6,S,9.8
47777,WAKAYAMA,JAPAN,34.2167,135.15,18,20.4,55,1021.4,SW,7.2
47778,SHIONOMISAKI,JAPAN,33.45,135.75,69,18.9,63,1022.4,S,2.1
47780,NARA,JAPAN,34.6833,135.8167,108,23.5,32,1020.5,SW,2.1
47784,YAMAGUCHI,JAPAN,34.15,131.45,19,23.2,30,1019.6,SE,3.6
47800,IZUHARA,JAPAN,34.1833,129.2833,4,21.9,42,1018.8,SW,3.6
47805,HIRADO,JAPAN,33.35,129.55,58,19.2,70,1019.6,S,5.1
47807,FUKUOKA,JAPAN,33.5667,130.3667,15,22.5,53,1019.3,N,4.1
47809,IIZUKA,JAPAN,33.65,130.6833,37,24.6,32,1018.7,N,4.1
47812,SASEBO,JAPAN,33.15,129.7167,5,22.0,55,1019.8,SW,6.2
47813,SAGA,JAPAN,33.25,130.3,33,25.8,31,1018.8,S,5.7
47814,HITA,JAPAN,33.3167,130.9167,84,27.3,27,1018.2,W,4.1
47815,OITA,JAPAN,33.2333,131.6167,13,23.1,49,1019.1,NW,3.6
47817,NAGASAKI,JAPAN,32.7333,129.8667,35,21.4,59,1020.1,SW,4.1
47818,UNZENDAKE,JAPAN,32.7333,130.25,679,17.3,58,1019.7,W,3.6
47819,KUMAMOTO,JAPAN,32.8,130.7,39,24.8,39,1018.9,SW,4.6
47822,NOBEOKA,JAPAN,32.5667,131.65,21,22.0,53,1020.8,E,3.6
47823,AKUNE,JAPAN,32.0167,130.2,42,22.2,67,1019.9,SW,2.6
47824,HITOYOSHI,JAPAN,32.2167,130.75,147,24.7,48,1018.2,W,1.0
47827,KAGOSHIMA,JAPAN,31.55,130.5333,31,24.1,55,1019.8,SE,3.6
47829,MIYAKONOJO,JAPAN,31.7167,131.0667,155,23.8,51,1019.5,S,4.1
47830,MIYAZAKI,JAPAN,31.9333,131.4,15,22.2,56,1020.3,SE,5.7
47831,MAKURAZAKI,JAPAN,31.2667,130.2833,31,22.4,62,1020.2,SE,3.6
47835,ABURATSU,JAPAN,31.5667,131.4,14,22.9,58,1020.6,SE,2.1
47836,YAKUSHIMA,JAPAN,30.3833,130.65,38,23.5,58,1020.4,SE,4.6
47837,TANEGASHIMA,JAPAN,30.7167,130.9667,37,23.0,61,1020.4,SE,4.1
47838,USHIBUKA,JAPAN,32.1833,130.0167,15,21.8,64,1019.9,W,3.1
47843,FUKUE,JAPAN,32.6833,128.8167,26,21.5,61,1020.0,S,3.1
47887,MATSUYAMA,JAPAN,33.8333,132.7667,34,23.2,45,1019.7,N,1.6
47890,TADOTSU,JAPAN,34.2667,133.75,5,20.1,61,1020.4,N,2.1
47891,TAKAMATSU,JAPAN,34.3167,134.05,13,22.6,32,1020.5,NE,2.6
47892,UWAJIMA,JAPAN,33.2167,132.55,14,23.3,60,1020.0,NW,3.6
47893,KOCHI,JAPAN,33.5667,133.5333,4,20.9,53,1021.8,S,3.6
47895,TOKUSHIMA,JAPAN,34.0667,134.5667,6,21.0,49,1020.7,SE,6.2
47897,SUKUMO,JAPAN,32.9167,132.6833,10,23.8,56,1020.6,S,2.1
47898,SHIMIZU,JAPAN,32.7167,133.0,33,22.0,62,1021.3,SE,1.6
47899,MUROTOMISAKI,JAPAN,33.25,134.1667,186,18.7,64,1021.8,SE,3.1
47909,NAZE,JAPAN,28.3667,129.4833,7,24.0,53,1019.1,SE,2.6
47912,YONAGUNIJIMA,JAPAN,24.4667,123.0,36,26.7,63,1016.0,SE,5.1
47917,IRIOMOTEJIMA,JAPAN,24.4167,123.75,11,26.6,65,1016.1,E,2.1
47918,ISHIGAKIJIMA,JAPAN,24.3333,124.15,14,26.9,60,1016.4,E,5.1
47927,MIYAKOJIMA,JAPAN,24.7833,125.2667,41,25.2,61,1016.6,SE,3.6
47929,KUMEJIMA,JAPAN,26.3333,126.8,6,24.8,59,1017.8,SE,3.6
47936,NAHA,JAPAN,26.2,127.6833,50,24.5,62,1017.8,E,5.1
47940,NAGO,JAPAN,26.5833,127.95,7,24.8,63,1018.1,E,4.1
47942,OKINOERABU,JAPAN,27.4167,128.7,29,23.2,63,1018.8,E,4.6
47945,MINAMIDAITOJIMA,JAPAN,25.8167,131.2167,20,24.5,65,1018.7,NE,6.7
47971,CHICHIJIMA,JAPAN,27.0833,142.1833,8,22.5,81,1020.0,NE,4.1
47991,MINAMITORISHIMA,JAPAN,24.2833,153.9833,8,26.5,86,1018.6,NE,4.1
