ID,City,Country,Latitude,Longitude,Height,Temperature,Humidity,Pressure,Wind Direction,Wind Speed
21432,OSTROV KOTEL'NYJ,RUSSIAN FEDERATION,76.0,137.8667,14,5.4,82,1006.8,E,6.0
21608,ANABAR,RUSSIAN FEDERATION,73.2167,113.5,13,-0.2,89,1000.8,N,11.0
21636,KIGILYAH,RUSSIAN FEDERATION,73.3333,139.8667,24,5.5,81,1001.6,E,12.0
21721,IM.YU.A. HABAROVA,RUSSIAN FEDERATION,72.4,126.35,19,8.7,70, 999.0,W,3.0
21908,DZALINDA,RUSSIAN FEDERATION,70.1333,113.9667,61,4.6,86,1004.0,NW,5.0
21931,JUBILEJNAJA,RUSSIAN FEDERATION,70.7667,136.2167,24,19.0,49, 996.1,W,4.0
21937,KUJGA,RUSSIAN FEDERATION,70.0333,135.6667,92,20.4,49,-,NW,7.0
21946,CHOKURDAH,RUSSIAN FEDERATION,70.6167,147.8833,61,22.2,32,1001.9,S,5.0
21978,VAL' KARKAJ,RUSSIAN FEDERATION,70.0833,170.9167,5,0.9,99,1009.6,E,11.0
21982,OSTROV VRANGELJA,RUSSIAN FEDERATION,70.9833,-178.65,4,1.3,93,1015.4,NE,6.0
24871,OHOTSKIJ PEREVOZ,RUSSIAN FEDERATION,61.8667,135.5,140,21.8,48,1002.4,S,3.0
24918,PREOBRAZHENKA,RUSSIAN FEDERATION,60.05,108.0833,295,14.0,52, 999.5,W,7.0
24933,KILEER,RUSSIAN FEDERATION,60.95,119.3,249,15.8,88, 994.2,SE,1.0
25121,KOLYMSKAYA,RUSSIAN FEDERATION,68.7333,158.7167,12,21.3,32,1005.1,E,6.0
25248,ILIRNEJ,RUSSIAN FEDERATION,67.25,167.9667,353,18.5,41,1006.6,N,4.0
25282,MYS VANKAREM,RUSSIAN FEDERATION,67.8333,-175.8333,4,2.6,92,1013.0,-,-
25563,ANADYR',RUSSIAN FEDERATION,64.7833,177.5667,60,9.9,68,1014.5,SE,9.0
25703,SEJMCHAN,RUSSIAN FEDERATION,62.9167,152.4167,210,22.7,32,1002.2,S,4.0
25745,KAMENSKOE,RUSSIAN FEDERATION,62.4667,166.2,40,18.2,37,1013.1,SW,4.0
25913,MAGADAN,RUSSIAN FEDERATION,59.55,150.7833,116,9.4,82,1009.9,W,3.0
29393,CHERVYANKA,RUSSIAN FEDERATION,57.65,99.5333,220,22.7,52,1006.9,NW,4.0
29771,SHCHETINKINO,RUSSIAN FEDERATION,55.35,92.0833,804,24.7,35,1007.9,N,2.0
30198,SUON-TIT,RUSSIAN FEDERATION,58.0667,123.7167,416,23.0,50, 998.0,S,1.0
30433,NIZHNEANGARSK,RUSSIAN FEDERATION,55.7833,109.5667,479,12.2,78,1006.2,S,4.0
30636,BARGUZIN,RUSSIAN FEDERATION,53.6167,109.6333,488,23.8,46,1005.0,SW,2.0
30673,MOGOCHA,RUSSIAN FEDERATION,53.75,119.7333,624,23.3,39, 999.8,SE,1.0
30844,HILOK,RUSSIAN FEDERATION,51.3667,110.4667,801,19.8,54,1007.1,W,5.0
30879,NERCHINSKIJ ZAVOD,RUSSIAN FEDERATION,51.3167,119.6167,619,22.4,45,1003.0,W,2.0
31041,UST'-MIL',RUSSIAN FEDERATION,59.6333,133.0333,179,23.8,41, 999.9,S,2.0
31102,KANKU,RUSSIAN FEDERATION,57.65,125.9667,1204,-,-,-,-,-
31168,AYAN,RUSSIAN FEDERATION,56.45,138.15,7,6.5,87,1010.7,N,5.0
31369,NIKOLAEVSK-NA-AMURE,RUSSIAN FEDERATION,53.1333,140.6833,45,14.2,73,1008.6,SE,5.0
31388,NORSK,RUSSIAN FEDERATION,52.35,129.9167,207,23.1,49,1001.3,N,1.0
31538,SUTUR,RUSSIAN FEDERATION,50.0667,132.1333,347,12.9,86,1003.9,calm,-
31707,EKATERINO-NIKOL'SKOE,RUSSIAN FEDERATION,47.7333,130.9667,72,14.8,88,1002.4,E,2.0
31961,TIMIRYAZEVSKIJ,RUSSIAN FEDERATION,43.8833,131.9667,36,17.4,88,1002.3,S,4.0
32061,ALEKSANDROVSK-SAHALINSKIJ,RUSSIAN FEDERATION,50.9,142.1667,31,12.5,77,1009.3,SE,4.0
32150,JUZHNO-SAHALINSK,RUSSIAN FEDERATION,46.95,142.7167,24,12.5,89,1009.4,SE,2.0
32165,JUZHNO-KURIL'SK,RUSSIAN FEDERATION,44.0167,145.8667,45,10.3,91,1012.5,-,-
32215,SEVERO-KURIL'SK,RUSSIAN FEDERATION,50.6833,156.1333,23,14.2,54,1012.6,N,6.0
32389,KLJUCHI,RUSSIAN FEDERATION,56.3167,160.8333,28,12.4,67,1013.0,NE,3.0
32583,PETROPAVLOVSK-KAMCHATSKIJ,RUSSIAN FEDERATION,52.8667,158.65,24,10.4,75,1011.5,S,2.0
36096,KYZYL,RUSSIAN FEDERATION,51.7,94.4833,632,25.9,24,1005.2,NE,1.0
44203,RINCHINLHUMBE,MONGOLIA,51.1167,99.6667,1583,20.5,31,1008.9,W,2.0
44207,HATGAL,MONGOLIA,50.4333,100.15,1668,20.1,26,1008.8,SE,4.0
44212,ULAANGOM,MONGOLIA,49.8,92.0833,939,24.4,37,1006.6,S,7.0
44213,BARUUNTURUUN,MONGOLIA,49.65,94.4,1232,23.3,32,1005.6,E,1.0
44215,OMNO-GOBI,MONGOLIA,49.0167,91.7167,1590,16.5,56,1010.5,N,2.0
44218,HOVD,MONGOLIA,48.0167,91.5667,1405,18.1,59,1010.0,NW,1.0
44225,TOSONTSENGEL,MONGOLIA,48.7333,98.2,1723,17.0,44,1011.5,SE,1.0
44230,TARIALAN,MONGOLIA,49.5667,102.0,1235,21.1,34,1010.9,SE,2.0
44231,MUREN,MONGOLIA,49.6333,100.1667,1283,22.1,33,1008.2,SE,1.0
44232,HUTAG,MONGOLIA,49.3833,102.7,938,21.4,38,1003.0,W,3.0
44237,ERDENEMANDAL,MONGOLIA,48.5333,101.3833,1509,19.2,43,1010.5,E,1.0
44239,BULGAN,MONGOLIA,48.8,103.55,1208,21.4,42,1008.7,SE,3.0
44241,BARUUNHARAA,MONGOLIA,48.9167,106.0667,807,22.7,38,1009.8,S,2.0
44256,DASHBALBAR,MONGOLIA,49.55,114.4,705,22.7,40,1006.2,N,5.0
44259,CHOIBALSAN,MONGOLIA,48.0833,114.55,747,22.8,33,1007.0,W,4.0
44265,BAITAG,MONGOLIA,46.1167,91.4667,1186,21.6,48,1007.8,calm,-
44272,ULIASTAI,MONGOLIA,47.75,96.85,1759,16.4,61,1009.5,W,3.0
44275,BAYANBULAG,MONGOLIA,46.8333,98.0833,2255,10.4,85,1018.0,SE,4.0
44277,ALTAI,MONGOLIA,46.4,96.25,2181,14.3,71,1012.5,calm,-
44282,TSETSERLEG,MONGOLIA,47.45,101.4667,1691,18.9,41,1010.1,N,1.0
44284,GALUUT,MONGOLIA,46.7,100.1333,2126,11.2,63,1018.5,calm,-
44285,HUJIRT,MONGOLIA,46.9,102.7667,1662,19.5,38,1008.7,NW,3.0
44287,BAYANHONGOR,MONGOLIA,46.1333,100.6833,1859,13.0,68,1016.6,E,2.0
44288,ARVAIHEER,MONGOLIA,46.2667,102.7833,1813,17.0,36,1012.2,W,6.0
44292,ULAANBAATAR,MONGOLIA,47.9167,106.8667,1729,19.3,36,1011.4,NE,2.0
44294,MAANTI,MONGOLIA,47.3,107.4833,1430,18.8,32,1010.7,calm,-
44298,CHOIR,MONGOLIA,46.45,108.2167,1286,19.0,36,1010.3,N,4.0
44302,BAYAN-OVOO,MONGOLIA,47.7833,112.1167,926,20.2,45,1008.7,W,4.0
44304,UNDERKHAAN,MONGOLIA,47.3167,110.6333,1033,19.6,47,1009.9,SW,2.0
44305,BARUUN-URT,MONGOLIA,46.6833,113.2833,981,20.9,40,1008.5,NW,4.0
44313,KHALKH-GOL,MONGOLIA,47.6167,118.6167,688,21.6,41,1006.5,W,5.0
44314,MATAD,MONGOLIA,47.1667,115.6333,907,21.1,25,1008.1,NW,6.0
44317,ERDENETSAGAAN,MONGOLIA,45.9,115.3667,1076,19.6,38,1008.8,calm,-
44336,SAIKHAN-OVOO,MONGOLIA,45.45,103.9,1316,20.9,23,1007.1,W,1.0
44341,MANDALGOBI,MONGOLIA,45.7667,106.2833,1393,21.4,22,1008.8,N,6.0
44347,TSOGT-OVOO,MONGOLIA,44.4167,105.3167,1298,22.6,22,1009.9,calm,-
44352,BAYANDELGER,MONGOLIA,45.7333,112.3667,1101,20.2,39,1007.5,W,4.0
44354,SAINSHAND,MONGOLIA,44.9,110.1167,938,23.5,22,1009.0,S,4.0
44358,ZAMYN-UUD,MONGOLIA,43.7333,111.9,964,22.5,25,1009.3,SW,2.0
44373,DALANZADGAD,MONGOLIA,43.5833,104.4167,1465,22.2,19,1009.6,NE,3.0
45007,HONG KONG INTERNATIONAL AIRPORT,"HONG KONG, CHINA",22.3,113.9167,7,30.6,68,1004.5,S,4.0
45032,TA KWU LING,"HONG KONG, CHINA",22.5167,114.15,14,27.6,89,1004.6,calm,-
45035,LAU FAU SHAN,"HONG KONG, CHINA",22.4667,113.9833,35,27.3,98,1004.8,E,1.0
45039,SHA TIN,"HONG KONG, CHINA",22.4,114.2,12,28.5,87,1005.1,SW,3.0
45044,CHEUNG CHAU,"HONG KONG, CHINA",22.2,114.0167,79,26.7,100,1005.2,W,3.0
47003,SENBONG,DEMOCRATIC PEOPLE'S REPUBLIC OF KOREA,42.3167,130.4,3,-,-,1003.7,calm,-
47005,SAMJIYON,DEMOCRATIC PEOPLE'S REPUBLIC OF KOREA,41.8167,128.3,1381,15.2,71,-,SW,4.0
47008,CHONGJIN,DEMOCRATIC PEOPLE'S REPUBLIC OF KOREA,41.7833,129.8167,43,-,-,1003.4,S,1.0
47014,CHUNGGANG,DEMOCRATIC PEOPLE'S REPUBLIC OF KOREA,41.7833,126.8833,331,22.3,78,1006.5,calm,-
47016,HYESAN,DEMOCRATIC PEOPLE'S REPUBLIC OF KOREA,41.4,128.1667,714,19.9,53,1004.1,calm,-
47020,KANGGYE,DEMOCRATIC PEOPLE'S REPUBLIC OF KOREA,40.9667,126.6,306,21.4,78,1015.8,calm,-
47022,PUNGSAN,DEMOCRATIC PEOPLE'S REPUBLIC OF KOREA,40.8167,128.15,1200,16.4,57,-,NW,4.0
47025,KIMCHAEK,DEMOCRATIC PEOPLE'S REPUBLIC OF KOREA,40.6667,129.2,23,-,-,1003.5,SE,3.0
47028,SUPUNG,DEMOCRATIC PEOPLE'S REPUBLIC OF KOREA,40.45,124.9333,76,25.3,65,1006.5,NE,1.0
47031,CHANGJIN,DEMOCRATIC PEOPLE'S REPUBLIC OF KOREA,40.3667,127.25,1080,15.0,81,-,N,1.0
47035,SINUIJU,DEMOCRATIC PEOPLE'S REPUBLIC OF KOREA,40.1,124.3833,7,25.5,67,1005.0,N,1.0
47037,KUSONG,DEMOCRATIC PEOPLE'S REPUBLIC OF KOREA,39.9833,125.25,99,26.5,79,1001.8,W,1.0
47039,HUICHON,DEMOCRATIC PEOPLE'S REPUBLIC OF KOREA,40.1667,126.25,155,23.9,66,1004.9,S,1.0
47041,HAMHEUNG,DEMOCRATIC PEOPLE'S REPUBLIC OF KOREA,39.9333,127.55,22,26.4,70,1001.6,SW,4.0
47046,SINPO,DEMOCRATIC PEOPLE'S REPUBLIC OF KOREA,40.0333,128.1833,19,-,-,1001.3,SW,1.0
47050,ANJU,DEMOCRATIC PEOPLE'S REPUBLIC OF KOREA,39.6167,125.65,27,24.7,70,1005.1,SW,1.0
47052,YANGDOK,DEMOCRATIC PEOPLE'S REPUBLIC OF KOREA,39.2167,126.65,279,21.8,85,1005.5,calm,-
47055,WONSAN,DEMOCRATIC PEOPLE'S REPUBLIC OF KOREA,39.1833,127.4333,36,23.4,88,1002.5,calm,-
47058,PYONGYANG,DEMOCRATIC PEOPLE'S REPUBLIC OF KOREA,39.0333,125.7833,36,24.5,79,1004.9,SW,3.0
47060,NAMPO,DEMOCRATIC PEOPLE'S REPUBLIC OF KOREA,38.7167,125.3833,47,24.1,89,1005.2,W,3.0
47061,CHANGJON,DEMOCRATIC PEOPLE'S REPUBLIC OF KOREA,38.7333,128.1833,34,-,-,1005.7,calm,-
47065,SARIWON,DEMOCRATIC PEOPLE'S REPUBLIC OF KOREA,38.5167,125.7667,52,24.4,75,1005.3,NW,4.0
47067,SINGYE,DEMOCRATIC PEOPLE'S REPUBLIC OF KOREA,38.5,126.5333,97,24.4,71,-,calm,-
47068,RYONGYON,DEMOCRATIC PEOPLE'S REPUBLIC OF KOREA,38.15,124.8833,6,24.5,73,1005.5,W,1.0
47069,HAEJU,DEMOCRATIC PEOPLE'S REPUBLIC OF KOREA,38.0333,125.7,81,24.6,73,1004.4,SW,2.0
47070,KAESONG,DEMOCRATIC PEOPLE'S REPUBLIC OF KOREA,37.9667,126.5667,70,23.5,82,1005.6,SW,2.0
47075,PYONGGANG,DEMOCRATIC PEOPLE'S REPUBLIC OF KOREA,38.4167,127.2833,352,21.7,68,1005.8,calm,-
47090,SOKCHO,REPUBLIC OF KOREA,38.25,128.55,19,23.8,76,1002.7,E,2.1
47093,Bukchuncheon:,REPUBLIC OF KOREA,37.9333,127.75,95,24.1,77,1004.2,SW,1.0
47095,CHEORWON,REPUBLIC OF KOREA,38.1333,127.3,155,24.5,68,1004.4,SW,1.6
47097,ICHEON,REPUBLIC OF KOREA,37.25,127.4833,79,26.4,68,1004.7,N,1.0
47098,DONGDUCHEON,REPUBLIC OF KOREA,37.9,127.05,110,23.2,87,1004.4,W,1.0
47099,PAJU,REPUBLIC OF KOREA,37.8833,126.75,30,23.0,86,1005.3,W,1.0
47100,DAEGWALLYEONG,REPUBLIC OF KOREA,37.6667,128.7167,773,21.6,73,1003.3,W,4.6
47101,CHUNCHEON,REPUBLIC OF KOREA,37.9,127.7333,78,24.7,68,1003.7,SW,1.6
47102,BAENGNYEONGDO,REPUBLIC OF KOREA,37.95,124.6167,146,22.4,75,1004.4,NW,4.1
47104,BUKGANGNEUNG,REPUBLIC OF KOREA,37.8,128.85,80,23.9,81,1002.5,calm,-
47105,GANGNEUNG,REPUBLIC OF KOREA,37.75,128.8833,27,25.2,77,1003.1,E,1.0
47106,DONGHAE,REPUBLIC OF KOREA,37.5,129.1167,41,25.9,62,1003.4,NE,1.6
47108,SEOUL,REPUBLIC OF KOREA,37.5667,126.95,87,24.9,72,1004.0,W,2.1
47112,INCHEON,REPUBLIC OF KOREA,37.4667,126.6167,69,22.5,82,1004.8,W,2.1
47114,WONJU,REPUBLIC OF KOREA,37.3333,127.9333,150,27.2,52,1003.5,NW,1.6
47115,ULLEUNGDO,REPUBLIC OF KOREA,37.4667,130.8833,224,26.0,79,1003.1,E,2.6
47119,SUWON,REPUBLIC OF KOREA,37.2667,126.9833,37,26.3,64,1004.1,W,2.1
47121,YEONGWOL,REPUBLIC OF KOREA,37.1667,128.45,241,27.1,59,1003.2,N,1.0
47127,CHUNGJU,REPUBLIC OF KOREA,36.9667,127.95,116,26.3,66,1002.9,NW,0.5
47129,SEOSAN,REPUBLIC OF KOREA,36.7667,126.4833,30,25.6,70,1004.7,SW,2.6
47130,ULJIN,REPUBLIC OF KOREA,36.9833,129.4,51,23.1,79,1003.5,SE,1.6
47131,CHEONGJU,REPUBLIC OF KOREA,36.6333,127.4333,58,28.5,52,1003.0,W,1.6
47133,DAEJEON,REPUBLIC OF KOREA,36.3667,127.3667,69,27.6,62,1003.7,N,0.5
47135,CHUPUNGNYEONG,REPUBLIC OF KOREA,36.2167,127.9833,245,28.2,54,1002.4,W,2.6
47136,ANDONG,REPUBLIC OF KOREA,36.5667,128.7,141,30.5,53,1002.9,SW,1.6
47137,SANGJU,REPUBLIC OF KOREA,36.4,128.15,97,29.1,57,1001.8,W,1.0
47138,POHANG,REPUBLIC OF KOREA,36.0167,129.3667,3,28.9,51,1001.9,E,3.1
47140,GUNSAN,REPUBLIC OF KOREA,36.0,126.75,24,27.6,62,1004.9,W,3.6
47143,DAEGU,REPUBLIC OF KOREA,35.8667,128.65,54,31.9,42,1002.0,SW,1.0
47145,CHEONAN,REPUBLIC OF KOREA,36.7667,127.1167,25,27.0,59,1004.0,W,1.6
47146,JEONJU,REPUBLIC OF KOREA,35.8333,127.1167,62,28.5,56,1003.6,W,2.1
47150,BORYEONG,REPUBLIC OF KOREA,36.3167,126.55,16,25.3,68,1003.9,SW,1.6
47152,ULSAN,REPUBLIC OF KOREA,35.55,129.3167,35,28.8,55,1002.3,S,2.1
47154,GUMI,REPUBLIC OF KOREA,36.1167,128.3167,50,28.8,49,1003.2,W,1.6
47155,CHANGWON,REPUBLIC OF KOREA,35.1667,128.5667,38,32.0,48,1002.8,E,3.6
47156,GWANGJU,REPUBLIC OF KOREA,35.1667,126.8833,73,30.5,52,1003.5,S,2.1
47157,GEOCHANG,REPUBLIC OF KOREA,35.6667,127.9,227,29.8,50,1002.6,E,1.6
47159,BUSAN,REPUBLIC OF KOREA,35.1,129.0167,70,29.5,57,1002.5,S,4.1
47162,TONGYEONG,REPUBLIC OF KOREA,34.8333,128.4333,33,29.3,53,1003.5,SE,3.1
47165,MOKPO,REPUBLIC OF KOREA,34.8167,126.3667,39,26.7,68,1004.4,W,4.1
47168,YEOSU,REPUBLIC OF KOREA,34.7333,127.7333,65,27.7,65,1004.0,SW,4.1
47169,HEUKSANDO,REPUBLIC OF KOREA,34.6833,125.45,77,28.2,65,1004.5,S,2.6
47170,WANDO,REPUBLIC OF KOREA,34.3833,126.7,36,29.4,69,1004.2,E,2.1
47171,JEONGEUP,REPUBLIC OF KOREA,35.55,126.85,46,30.8,47,1003.5,-,-
47172,GOCHANG,REPUBLIC OF KOREA,35.3333,126.5833,56,30.5,52,1003.2,W,2.6
47173,NAMWON,REPUBLIC OF KOREA,35.4167,127.3833,133,30.9,41,1003.3,W,2.1
47174,SUNCHEON,REPUBLIC OF KOREA,35.0167,127.3667,166,28.3,57,1002.6,W,2.1
47177,Hongseong:,REPUBLIC OF KOREA,36.65,126.6833,25,26.7,68,1004.5,NW,1.0
47184,JEJU,REPUBLIC OF KOREA,33.5,126.5167,21,27.0,71,1004.3,N,3.1
47185,GOSAN,REPUBLIC OF KOREA,33.2833,126.15,75,24.1,88,1004.6,N,1.6
47188,SEONGSAN,REPUBLIC OF KOREA,33.3833,126.8667,19,26.4,78,1005.0,E,3.1
47189,SEOGWIPO,REPUBLIC OF KOREA,33.2333,126.55,50,26.7,76,1004.7,S,1.6
47192,JINJU,REPUBLIC OF KOREA,35.15,128.0333,29,30.7,49,1003.3,W,1.6
47401,WAKKANAI,JAPAN,45.4,141.6667,11,18.9,80,1008.5,SW,4.1
47402,KITAMIESASHI,JAPAN,44.9333,142.5833,8,14.0,91,1009.0,NE,2.1
47404,HABORO,JAPAN,44.35,141.7,9,18.8,82,1008.2,NW,3.1
47405,OMU,JAPAN,44.5667,142.95,15,14.8,84,1008.5,E,2.6
47407,ASAHIKAWA,JAPAN,43.75,142.3667,140,27.5,56,1006.8,N,1.6
47409,ABASHIRI,JAPAN,44.0167,144.2667,43,21.6,66,1008.3,SE,3.1
47411,OTARU,JAPAN,43.1667,141.0,26,23.5,66,1007.1,N,2.1
47412,SAPPORO,JAPAN,43.05,141.3167,26,24.9,57,1007.1,SE,6.7
47413,IWAMIZAWA,JAPAN,43.2,141.7833,51,23.8,64,1008.7,S,6.7
47417,OBIHIRO,JAPAN,42.9167,143.2,43,19.3,77,1010.5,E,1.0
47418,KUSHIRO,JAPAN,42.9833,144.3667,39,15.0,80,1011.6,S,3.6
47420,NEMURO,JAPAN,43.3167,145.5833,27,14.8,83,1011.7,SE,2.6
47421,SUTTSU,JAPAN,42.7833,140.2167,35,20.6,75,1007.5,S,8.8
47423,MURORAN,JAPAN,42.3,140.9667,49,17.4,90,1009.7,E,2.6
47424,TOMAKOMAI,JAPAN,42.6167,141.5333,7,16.4,93,1010.7,S,2.1
47426,URAKAWA,JAPAN,42.15,142.7667,38,17.7,86,1011.1,SE,6.7
47428,ESASHI,JAPAN,41.8667,140.1167,12,27.2,51,1006.4,S,3.1
47430,HAKODATE,JAPAN,41.8167,140.75,43,23.4,69,1008.0,SE,7.2
47433,KUTCHAN,JAPAN,42.9,140.75,188,25.3,57,1006.6,SW,8.2
47435,MOMBETSU,JAPAN,44.3333,143.35,17,16.7,80,1008.4,E,1.6
47440,HIROO,JAPAN,42.2833,143.3167,34,13.4,94,1011.8,SE,2.1
47512,OFUNATO,JAPAN,39.05,141.7,38,24.0,70,1009.4,SE,7.2
47520,SHINJO,JAPAN,38.75,140.3,102,29.6,50,1006.2,E,5.1
47570,WAKAMATSU,JAPAN,37.4833,139.9,213,33.3,33,1004.7,SE,4.1
47574,FUKAURA,JAPAN,40.6333,139.9167,67,25.8,69,1005.9,W,1.0
47575,AOMORI,JAPAN,40.8167,140.7667,4,23.0,71,1007.5,NW,4.1
47576,MUTSU,JAPAN,41.2833,141.2,4,20.4,79,1008.9,SE,4.6
47582,AKITA,JAPAN,39.7167,140.0833,21,31.7,43,1005.4,SW,3.1
47584,MORIOKA,JAPAN,39.6833,141.15,155,28.8,56,1006.8,S,5.1
47585,MIYAKO,JAPAN,39.6333,141.95,47,24.5,74,1008.0,NE,1.0
47587,SAKATA,JAPAN,38.9,139.8333,4,30.9,45,1005.5,W,3.1
47588,YAMAGATA,JAPAN,38.25,140.3333,153,31.9,40,1005.5,NW,2.1
47590,SENDAI,JAPAN,38.25,140.8833,43,24.1,71,1008.9,SE,3.6
47592,ISHINOMAKI,JAPAN,38.4167,141.2833,42,22.8,81,1009.4,SE,6.7
47595,FUKUSHIMA,JAPAN,37.75,140.4667,69,31.2,41,1006.9,S,4.1
47597,SHIRAKAWA,JAPAN,37.1167,140.2,356,27.9,42,1007.1,SW,6.7
47598,ONAHAMA,JAPAN,36.9333,140.9,5,24.8,78,1009.9,S,4.6
47600,WAJIMA,JAPAN,37.3833,136.8833,6,28.3,55,1005.2,NE,3.1
47602,AIKAWA,JAPAN,38.0167,138.2333,7,27.2,70,1005.6,NW,2.1
47604,NIIGATA,JAPAN,37.8833,139.0167,5,29.5,55,1005.1,NW,2.6
47605,KANAZAWA,JAPAN,36.5833,136.6333,33,29.1,47,1005.2,W,3.6
47606,FUSHIKI,JAPAN,36.7833,137.05,13,27.5,72,1005.1,N,3.1
47607,TOYAMA,JAPAN,36.7,137.2,17,30.5,53,1004.8,N,2.6
47610,NAGANO,JAPAN,36.65,138.1833,419,32.0,33,1003.1,W,4.6
47612,TAKADA,JAPAN,37.1,138.2333,14,29.9,52,1004.4,N,4.1
47615,UTSUNOMIYA,JAPAN,36.5333,139.8667,140,29.7,44,1008.3,SE,4.6
47616,FUKUI,JAPAN,36.05,136.2167,17,33.2,27,1004.6,S,6.7
47617,TAKAYAMA,JAPAN,36.15,137.25,561,30.7,35,1002.6,S,4.1
47618,MATSUMOTO,JAPAN,36.2333,137.9667,611,30.0,33,1002.9,E,1.0
47620,SUWA,JAPAN,36.0333,138.1,762,28.1,31,1003.0,SE,7.2
47622,KARUIZAWA,JAPAN,36.3333,138.5333,1004,23.4,61,-,E,4.1
47624,MAEBASHI,JAPAN,36.4,139.05,114,30.9,35,1007.4,E,4.1
47626,KUMAGAYA,JAPAN,36.15,139.3667,31,30.1,51,1008.1,SE,4.1
47629,MITO,JAPAN,36.3667,140.4667,31,27.0,56,1009.3,E,3.6
47631,TSURUGA,JAPAN,35.65,136.05,12,30.7,42,1005.3,S,8.2
47632,GIFU,JAPAN,35.4,136.75,17,29.2,50,1007.4,S,4.1
47636,NAGOYA,JAPAN,35.1667,136.95,56,28.8,51,1007.2,S,5.1
47637,IIDA,JAPAN,35.5167,137.8167,528,30.1,38,1003.8,S,3.6
47638,KOFU,JAPAN,35.6667,138.55,281,32.1,35,1005.3,S,2.6
47640,KAWAGUCHIKO,JAPAN,35.5,138.75,861,26.7,37,-,SE,5.1
47641,CHICHIBU,JAPAN,35.9833,139.0667,233,30.8,40,1006.1,E,5.7
47648,CHOSHI,JAPAN,35.7333,140.85,28,25.2,70,1009.9,SE,3.6
47649,UENO,JAPAN,34.75,136.1333,160,27.0,56,1006.8,E,4.1
47651,TSU,JAPAN,34.7333,136.5167,18,26.1,79,1007.9,E,7.7
47653,IRAKO,JAPAN,34.6167,137.0833,7,26.0,69,1008.0,SE,3.6
47654,HAMAMATSU,JAPAN,34.75,137.7,47,26.8,58,1008.1,SE,7.2
47655,OMAEZAKI,JAPAN,34.6,138.2,46,25.6,73,1008.4,E,5.1
47656,SHIZUOKA,JAPAN,34.9667,138.4,15,28.1,56,1007.9,S,2.1
47657,MISHIMA,JAPAN,35.1,138.9167,21,29.4,50,1007.8,SE,6.2
47662,TOKYO,JAPAN,35.6833,139.75,24,28.3,52,1008.7,S,4.6
47663,OWASE,JAPAN,34.0667,136.1833,17,24.7,71,1008.3,E,2.1
47666,IROZAKI,JAPAN,34.6,138.8333,53,24.1,76,1008.3,E,8.8
47668,AJIRO,JAPAN,35.0333,139.0833,67,24.7,68,1009.0,SE,2.1
47670,YOKOHAMA,JAPAN,35.4333,139.65,42,29.0,53,1008.8,E,2.6
47672,TATEYAMA,JAPAN,34.9833,139.85,7,26.9,60,1009.2,E,4.1
47674,KATSUURA,JAPAN,35.15,140.3,13,25.8,71,1009.6,E,2.6
47675,OSHIMA,JAPAN,34.7333,139.35,75,25.8,66,1008.5,NE,3.1
47677,MIYAKEJIMA,JAPAN,34.1167,139.5167,39,23.9,84,1008.3,E,5.1
47678,HACHIJOJIMA,JAPAN,33.1167,139.7667,152,23.2,100,1007.7,NE,3.1
47682,CHIBA,JAPAN,35.6,140.1,6,28.0,50,1009.1,SE,4.6
47684,YOKKAICHI,JAPAN,34.9333,136.5667,57,25.7,73,1008.1,S,3.1
47690,NIKKO,JAPAN,36.7333,139.5,1294,20.6,57,-,NE,2.1
47740,SAIGO,JAPAN,36.2,133.3333,28,28.8,51,1004.2,S,2.6
47741,MATSUE,JAPAN,35.45,133.05,22,31.1,41,1003.4,N,3.1
47742,SAKAI,JAPAN,35.5333,133.2333,3,31.6,37,1003.4,E,3.6
47744,YONAGO,JAPAN,35.4333,133.3333,8,32.8,33,1003.7,SE,4.1
47746,TOTTORI,JAPAN,35.4833,134.2333,15,32.0,39,1003.7,S,4.1
47747,TOYOOKA,JAPAN,35.5333,134.8167,5,32.6,38,1004.0,S,4.1
47750,MAIZURU,JAPAN,35.45,135.3167,4,32.4,34,1004.4,W,5.1
47754,HAGI,JAPAN,34.4,131.4,3,30.5,49,1003.3,SE,4.1
47755,HAMADA,JAPAN,34.8833,132.0667,20,26.6,63,1004.0,N,3.1
47756,TSUYAMA,JAPAN,35.05,134.0,147,29.6,51,1004.8,SE,4.1
47759,KYOTO,JAPAN,35.0,135.7167,52,30.8,42,1005.7,E,4.6
47761,HIKONE,JAPAN,35.2667,136.2333,92,31.0,35,1006.2,SE,6.7
47765,HIROSHIMA,JAPAN,34.3833,132.45,54,29.7,38,1004.0,SW,2.6
47766,KURE,JAPAN,34.2333,132.55,5,27.8,55,1004.5,SW,3.6
47767,FUKUYAMA,JAPAN,34.4333,133.2333,3,29.3,51,1004.5,E,2.6
47768,OKAYAMA,JAPAN,34.6833,133.9167,6,28.0,60,1005.3,E,4.1
47769,HIMEJI,JAPAN,34.8333,134.6667,39,27.8,48,1005.7,S,4.1
47770,KOBE,JAPAN,34.6833,135.2,30,26.6,63,1006.0,SW,4.1
47772,OSAKA,JAPAN,34.6667,135.5167,83,29.1,48,1005.4,SW,1.6
47776,SUMOTO,JAPAN,34.3333,134.9,112,25.2,66,1005.6,E,2.1
47777,WAKAYAMA,JAPAN,34.2167,135.15,18,25.3,66,1005.8,W,2.6
47778,SHIONOMISAKI,JAPAN,33.45,135.75,69,21.9,98,1007.2,NE,5.1
47780,NARA,JAPAN,34.6833,135.8167,108,29.3,42,1005.5,E,5.1
47784,YAMAGUCHI,JAPAN,34.15,131.45,19,28.1,55,1004.0,S,4.1
47800,IZUHARA,JAPAN,34.1833,129.2833,4,27.8,62,1003.9,SE,2.1
47805,HIRADO,JAPAN,33.35,129.55,58,26.8,65,1003.6,N,3.1
47807,FUKUOKA,JAPAN,33.5667,130.3667,15,28.3,63,1003.1,N,4.6
47809,IIZUKA,JAPAN,33.65,130.6833,37,28.1,63,1003.2,E,2.1
47812,SASEBO,JAPAN,33.15,129.7167,5,28.9,60,1003.0,SW,3.6
47813,SAGA,JAPAN,33.25,130.3,33,30.0,50,1002.7,E,2.6
47814,HITA,JAPAN,33.3167,130.9167,84,29.5,59,1002.9,E,2.1
47815,OITA,JAPAN,33.2333,131.6167,13,25.8,76,1004.3,S,2.1
47817,NAGASAKI,JAPAN,32.7333,129.8667,35,28.2,57,1003.0,NW,1.0
47818,UNZENDAKE,JAPAN,32.7333,130.25,679,23.8,70,1002.6,W,2.1
47819,KUMAMOTO,JAPAN,32.8,130.7,39,29.9,57,1002.3,NE,3.1
47822,NOBEOKA,JAPAN,32.5667,131.65,21,22.6,97,1004.5,E,2.1
47823,AKUNE,JAPAN,32.0167,130.2,42,25.8,74,1003.1,N,0.5
47824,HITOYOSHI,JAPAN,32.2167,130.75,147,27.2,71,1002.5,NW,1.0
47827,KAGOSHIMA,JAPAN,31.55,130.5333,31,26.2,79,1002.5,NE,3.1
47829,MIYAKONOJO,JAPAN,31.7167,131.0667,155,24.8,86,1002.7,N,5.1
47830,MIYAZAKI,JAPAN,31.9333,131.4,15,23.8,95,1003.4,NE,3.6
47831,MAKURAZAKI,JAPAN,31.2667,130.2833,31,24.7,90,1002.5,NE,0.5
47835,ABURATSU,JAPAN,31.5667,131.4,14,23.7,100,1002.7,E,3.1
47836,YAKUSHIMA,JAPAN,30.3833,130.65,38,25.5,94,1002.4,NW,4.1
47837,TANEGASHIMA,JAPAN,30.7167,130.9667,37,25.3,93,1002.0,NE,1.0
47838,USHIBUKA,JAPAN,32.1833,130.0167,15,27.8,64,1003.2,SE,2.1
47843,FUKUE,JAPAN,32.6833,128.8167,26,28.2,64,1003.6,NE,1.6
47887,MATSUYAMA,JAPAN,33.8333,132.7667,34,27.3,56,1004.3,NW,1.6
47890,TADOTSU,JAPAN,34.2667,133.75,5,26.4,67,1004.6,N,3.1
47891,TAKAMATSU,JAPAN,34.3167,134.05,13,28.6,57,1004.5,NE,3.1
47892,UWAJIMA,JAPAN,33.2167,132.55,14,26.8,68,1003.6,NE,4.1
47893,KOCHI,JAPAN,33.5667,133.5333,4,25.7,64,1005.8,S,1.6
47895,TOKUSHIMA,JAPAN,34.0667,134.5667,6,24.2,78,1006.1,S,5.1
47897,SUKUMO,JAPAN,32.9167,132.6833,10,23.5,85,1003.6,E,5.1
47898,SHIMIZU,JAPAN,32.7167,133.0,33,22.1,98,1003.8,NE,6.2
47899,MUROTOMISAKI,JAPAN,33.25,134.1667,186,21.3,100,1005.5,E,9.8
47909,NAZE,JAPAN,28.3667,129.4833,7,25.2,93,1005.2,NW,1.0
47912,YONAGUNIJIMA,JAPAN,24.4667,123.0,36,31.6,79,1005.1,S,8.2
47917,IRIOMOTEJIMA,JAPAN,24.4167,123.75,11,30.5,81,1005.6,SW,8.2
47918,ISHIGAKIJIMA,JAPAN,24.3333,124.15,14,30.9,79,1006.3,SW,7.7
47927,MIYAKOJIMA,JAPAN,24.7833,125.2667,41,30.7,84,1006.1,SW,8.8
47929,KUMEJIMA,JAPAN,26.3333,126.8,6,28.6,88,1005.7,SW,8.2
47936,NAHA,JAPAN,26.2,127.6833,50,29.1,86,1006.4,SW,9.3
47940,NAGO,JAPAN,26.5833,127.95,7,29.2,81,1006.0,S,7.2
47942,OKINOERABU,JAPAN,27.4167,128.7,29,23.8,98,1006.6,W,3.1
47945,MINAMIDAITOJIMA,JAPAN,25.8167,131.2167,20,29.2,89,1008.8,S,5.1
47971,CHICHIJIMA,JAPAN,27.0833,142.1833,8,29.3,88,1013.6,S,5.7
47991,MINAMITORISHIMA,JAPAN,24.2833,153.9833,8,29.9,66,1017.1,E,3.6
50136,MOHE,CHINA,52.9667,122.5167,438,21.6,51,1002.8,N,1.0
50353,HUMA,CHINA,51.7333,126.6333,175,24.8,35,1001.9,N,4.0
50468,AIHUI,CHINA,50.25,127.45,166,22.0,50,1002.8,SW,1.0
50774,YICHUN,CHINA,47.7,128.8333,259,15.0,90,1001.7,E,2.0
50844,TAILAI,CHINA,46.4,123.45,139,21.3,48,1003.3,N,7.0
50963,TONGHE,CHINA,45.9667,128.7333,110,18.1,85,1000.7,NE,2.0
52203,HAMI,CHINA,42.8167,93.5167,739,28.8,36,1001.2,E,2.0
52533,JIUQUAN,CHINA,39.7667,98.4833,1478,24.5,38,1000.2,NE,3.0
52602,LENGHU,CHINA,38.8333,93.3833,2771,19.6,33, 998.5,NE,6.0
52754,GANGCA,CHINA,37.3333,100.1333,3302,14.2,49,1004.2,SE,2.0
52983,YU ZHONG,CHINA,35.8667,104.15,1875,24.8,41,1002.3,N,2.0
53513,LINHE,CHINA,40.7333,107.3667,1042,26.0,18,1006.4,E,3.0
53614,YINCHUAN,CHINA,38.4667,106.2,1112,23.6,36,1006.2,N,1.0
53673,YUANPING,CHINA,38.75,112.7,827,28.4,20,1005.3,N,2.0
53798,XINGTAI,CHINA,37.1667,114.35,184,31.6,22,1005.8,E,4.0
53959,YUNCHENG,CHINA,35.1,111.05,376,33.6,36,1003.0,SW,2.0
54094,MUDANJIANG,CHINA,44.5,129.6667,306,22.5,61, 999.5,SW,5.0
54102,XILIN HOT,CHINA,43.95,116.1167,1004,21.9,25,1008.7,N,3.0
54135,TONGLIAO,CHINA,43.6,122.2667,180,24.7,33,1005.5,NW,5.0
54236,ZHANGWU,CHINA,42.4167,122.5333,84,24.1,39,1006.3,N,3.0
54292,YANJI,CHINA,42.8667,129.5,258,22.7,68,1001.2,E,2.0
54308,FENGNING,CHINA,41.2,116.6333,736,25.8,28,1007.2,N,5.0
54471,YINGKOU,CHINA,40.6667,122.1667,5,23.9,60,1006.9,N,4.0
54511,BEIJING,CHINA,39.9333,116.2833,32,29.2,29,1006.4,NE,3.0
54751,CHANG DAO,CHINA,37.9333,120.7167,40,20.3,86,1006.2,N,4.0
54857,QINGDAO,CHINA,36.0667,120.3333,77,24.3,77,1005.0,S,3.0
56029,YUSHU,CHINA,33.0,96.9667,3717,13.6,65, 998.0,SE,1.0
56096,WUDU,CHINA,33.4,104.9167,1079,28.9,35,1001.1,E,1.0
56146,GARZE,CHINA,31.6167,100.0,3394,12.9,74,1000.8,S,1.0
56444,DEQEN,CHINA,28.45,98.8833,3320,15.9,66, 999.8,E,2.0
56492,YIBIN,CHINA,28.8,104.6,342,32.1,63,1002.1,SE,1.0
56778,KUNMING,CHINA,25.0167,102.6833,1892,19.7,77,1005.7,NE,2.0
57178,NANYANG,CHINA,33.1,112.4833,181,33.5,44,1003.9,E,4.0
57461,YICHANG,CHINA,30.7333,111.3667,257,34.1,45,1003.0,SE,2.0
57687,CHANGSHA,CHINA,28.1,112.7833,120,32.0,71,1002.6,SE,1.0
57816,GUIYANG,CHINA,26.5833,106.7333,1223,26.2,70,1003.3,NE,1.0
57957,GUILIN,CHINA,25.3333,110.3,166,27.4,85,1003.1,S,1.0
58040,GANYU,CHINA,34.85,119.1333,10,30.3,49,1004.5,W,2.0
58141,HUAIYIN,CHINA,33.6333,118.9333,13,29.4,53,1004.5,N,3.0
58265,LUSI,CHINA,32.0667,121.6,10,25.8,77,1004.5,E,4.0
58472,SHENGSI,CHINA,30.7333,122.45,81,24.5,80,1004.6,N,5.0
58527,JINGDEZHEN,CHINA,29.3,117.2,60,31.5,66,1004.0,NE,1.0
58752,RUIAN,CHINA,27.7833,120.65,38,25.3,91,1004.8,W,1.0
58847,FUZHOU,CHINA,26.0833,119.2833,85,27.9,100,1005.4,W,1.0
59134,XIAMEN,CHINA,24.4833,118.0833,139,29.0,84,1005.7,S,3.0
59265,WUZHOU,CHINA,23.4833,111.3,120,26.8,93,1003.0,W,1.0
59758,HAIKOU,CHINA,20.0,110.25,64,33.2,64,1003.3,S,3.0
59948,SANYA,CHINA,18.2167,109.5833,420,29.3,88,1005.5,SW,2.0
59981,XISHA DAO,CHINA,16.8333,112.3333,5,32.9,76,1006.8,S,3.0
91212,WEATHER FORECAST OFFICE,"GUAM, MARIANA IS., ISLANDS IN THE PACIFIC OCEAN NORTH OF THE EQUATOR",13.4667,144.7833,75,30.0,79,1011.3,E,5.7
91490,CHRISTMAS ISLAND,ISLANDS IN THE PACIFIC OCEAN NORTH OF THE EQUATOR,1.9833,-157.4833,3,30.2,60,1009.4,E,4.6
