ID,City,Country,Latitude,Longitude,Height,Temperature,Humidity,Pressure,Wind Direction,Wind Speed
45007,HONG KONG INTERNATIONAL AIRPORT,"HONG KONG, CHINA",22.3,113.9167,7,29.4,54,1010.4,N,2.0
45032,TA KWU LING,"HONG KONG, CHINA",22.5167,114.15,14,27.0,65,1010.3,E,2.0
45035,LAU FAU SHAN,"HONG KONG, CHINA",22.4667,113.9833,35,27.1,74,1010.6,W,3.0
45039,SHA TIN,"HONG KONG, CHINA",22.4,114.2,12,27.6,61,1010.6,E,1.0
45044,CHEUNG CHAU,"HONG KONG, CHINA",22.2,114.0167,79,25.9,78,1010.8,SE,4.0
47003,SENBONG,DEMOCRATIC PEOPLE'S REPUBLIC OF KOREA,42.3167,130.4,3,-,-,1007.6,SE,2.0
47005,SAMJIYON,DEMOCRATIC PEOPLE'S REPUBLIC OF KOREA,41.8167,128.3,1381,18.2,22,-,W,4.0
47008,CHONGJIN,DEMOCRATIC PEOPLE'S REPUBLIC OF KOREA,41.7833,129.8167,43,-,-,1008.0,SE,2.0
47014,CHUNGGANG,DEMOCRATIC PEOPLE'S REPUBLIC OF KOREA,41.7833,126.8833,331,26.0,34,1010.3,SW,5.0
47016,HYESAN,DEMOCRATIC PEOPLE'S REPUBLIC OF KOREA,41.4,128.1667,714,24.0,19,1009.7,W,2.0
47020,KANGGYE,DEMOCRATIC PEOPLE'S REPUBLIC OF KOREA,40.9667,126.6,306,26.8,38,1019.2,calm,-
47022,PUNGSAN,DEMOCRATIC PEOPLE'S REPUBLIC OF KOREA,40.8167,128.15,1200,21.6,38,-,NW,4.0
47025,KIMCHAEK,DEMOCRATIC PEOPLE'S REPUBLIC OF KOREA,40.6667,129.2,23,-,-,1007.3,S,5.0
47028,SUPUNG,DEMOCRATIC PEOPLE'S REPUBLIC OF KOREA,40.45,124.9333,76,25.2,44,1011.8,W,1.0
47031,CHANGJIN,DEMOCRATIC PEOPLE'S REPUBLIC OF KOREA,40.3667,127.25,1080,19.6,41,-,NW,3.0
47035,SINUIJU,DEMOCRATIC PEOPLE'S REPUBLIC OF KOREA,40.1,124.3833,7,20.8,59,1011.0,W,3.0
47037,KUSONG,DEMOCRATIC PEOPLE'S REPUBLIC OF KOREA,39.9833,125.25,99,22.4,62,1006.9,SE,3.0
47039,HUICHON,DEMOCRATIC PEOPLE'S REPUBLIC OF KOREA,40.1667,126.25,155,24.4,48,1010.2,SW,3.0
47041,HAMHEUNG,DEMOCRATIC PEOPLE'S REPUBLIC OF KOREA,39.9333,127.55,22,28.8,32,1006.8,W,7.0
47046,SINPO,DEMOCRATIC PEOPLE'S REPUBLIC OF KOREA,40.0333,128.1833,19,-,-,1006.7,calm,-
47050,ANJU,DEMOCRATIC PEOPLE'S REPUBLIC OF KOREA,39.6167,125.65,27,24.4,58,1010.1,S,1.0
47052,YANGDOK,DEMOCRATIC PEOPLE'S REPUBLIC OF KOREA,39.2167,126.65,279,23.2,49,1011.6,NW,3.0
47055,WONSAN,DEMOCRATIC PEOPLE'S REPUBLIC OF KOREA,39.1833,127.4333,36,26.3,39,1009.6,SW,3.0
47058,PYONGYANG,DEMOCRATIC PEOPLE'S REPUBLIC OF KOREA,39.0333,125.7833,36,24.8,51,1011.4,S,4.0
47060,NAMPO,DEMOCRATIC PEOPLE'S REPUBLIC OF KOREA,38.7167,125.3833,47,22.6,69,1011.2,calm,-
47061,CHANGJON,DEMOCRATIC PEOPLE'S REPUBLIC OF KOREA,38.7333,128.1833,34,-,-,1010.1,SW,8.0
47065,SARIWON,DEMOCRATIC PEOPLE'S REPUBLIC OF KOREA,38.5167,125.7667,52,22.4,59,1012.4,NW,4.0
47067,SINGYE,DEMOCRATIC PEOPLE'S REPUBLIC OF KOREA,38.5,126.5333,97,20.2,58,-,SE,3.0
47068,RYONGYON,DEMOCRATIC PEOPLE'S REPUBLIC OF KOREA,38.15,124.8833,6,21.2,62,1011.9,S,4.0
47069,HAEJU,DEMOCRATIC PEOPLE'S REPUBLIC OF KOREA,38.0333,125.7,81,16.9,76,1013.3,S,4.0
47070,KAESONG,DEMOCRATIC PEOPLE'S REPUBLIC OF KOREA,37.9667,126.5667,70,20.7,65,1013.8,SW,3.0
47402,KITAMIESASHI,JAPAN,44.9333,142.5833,8,14.4,72,1000.5,SW,5.7
47404,HABORO,JAPAN,44.35,141.7,9,12.0,92,1003.2,SW,6.2
47405,OMU,JAPAN,44.5667,142.95,15,14.5,70,1001.3,W,5.7
47411,OTARU,JAPAN,43.1667,141.0,26,13.9,77,1005.2,SW,5.1
47413,IWAMIZAWA,JAPAN,43.2,141.7833,51,15.6,69,1004.9,W,3.1
47417,OBIHIRO,JAPAN,42.9167,143.2,43,17.3,55,1002.7,W,3.1
47423,MURORAN,JAPAN,42.3,140.9667,49,12.1,84,1006.7,W,7.7
47424,TOMAKOMAI,JAPAN,42.6167,141.5333,7,14.0,79,1005.6,SW,5.1
47428,ESASHI,JAPAN,41.8667,140.1167,12,12.1,83,1009.0,W,9.3
47433,KUTCHAN,JAPAN,42.9,140.75,188,13.2,79,1006.0,W,7.2
47435,MOMBETSU,JAPAN,44.3333,143.35,17,11.7,92,1002.0,S,2.1
47440,HIROO,JAPAN,42.2833,143.3167,34,15.6,65,1004.2,W,3.1
47512,OFUNATO,JAPAN,39.05,141.7,38,16.4,66,1011.5,NW,1.0
47520,SHINJO,JAPAN,38.75,140.3,102,16.5,59,1014.5,NW,5.1
47574,FUKAURA,JAPAN,40.6333,139.9167,67,13.6,93,1011.8,SW,4.6
47576,MUTSU,JAPAN,41.2833,141.2,4,14.1,75,1008.1,SW,6.7
47588,YAMAGATA,JAPAN,38.25,140.3333,153,18.1,40,1014.6,SW,4.6
47592,ISHINOMAKI,JAPAN,38.4167,141.2833,42,18.9,50,1013.0,NW,5.7
47595,FUKUSHIMA,JAPAN,37.75,140.4667,69,20.7,37,1013.9,NW,3.6
47597,SHIRAKAWA,JAPAN,37.1167,140.2,356,18.4,42,1014.2,NW,5.7
47606,FUSHIKI,JAPAN,36.7833,137.05,13,19.5,49,1016.0,W,4.1
47607,TOYAMA,JAPAN,36.7,137.2,17,20.3,47,1016.1,W,3.6
47610,NAGANO,JAPAN,36.65,138.1833,419,18.1,47,1014.3,N,5.1
47615,UTSUNOMIYA,JAPAN,36.5333,139.8667,140,23.8,31,1013.1,NE,4.6
47616,FUKUI,JAPAN,36.05,136.2167,17,21.5,35,1016.6,W,2.6
47617,TAKAYAMA,JAPAN,36.15,137.25,561,20.9,38,1013.9,W,3.6
47620,SUWA,JAPAN,36.0333,138.1,762,21.3,36,1011.3,W,4.1
47622,KARUIZAWA,JAPAN,36.3333,138.5333,1004,16.6,49,-,E,2.6
47626,KUMAGAYA,JAPAN,36.15,139.3667,31,25.7,32,1012.9,S,2.6
47629,MITO,JAPAN,36.3667,140.4667,31,22.6,49,1013.7,E,2.1
47631,TSURUGA,JAPAN,35.65,136.05,12,20.1,47,1017.1,N,2.1
47632,GIFU,JAPAN,35.4,136.75,17,23.9,30,1015.8,W,4.1
47637,IIDA,JAPAN,35.5167,137.8167,528,20.5,40,1013.4,W,7.7
47640,KAWAGUCHIKO,JAPAN,35.5,138.75,861,17.4,60,-,SE,2.1
47641,CHICHIBU,JAPAN,35.9833,139.0667,233,23.6,37,1012.7,E,2.6
47649,UENO,JAPAN,34.75,136.1333,160,22.1,43,1016.0,SW,3.1
47651,TSU,JAPAN,34.7333,136.5167,18,22.6,42,1015.9,SE,1.6
47653,IRAKO,JAPAN,34.6167,137.0833,7,21.6,55,1015.9,S,2.1
47654,HAMAMATSU,JAPAN,34.75,137.7,47,20.9,54,1015.1,SW,4.1
47656,SHIZUOKA,JAPAN,34.9667,138.4,15,23.6,44,1013.6,NW,2.1
47657,MISHIMA,JAPAN,35.1,138.9167,21,22.8,47,1014.2,NW,3.1
47666,IROZAKI,JAPAN,34.6,138.8333,53,19.4,68,1014.4,W,5.1
47668,AJIRO,JAPAN,35.0333,139.0833,67,21.2,53,1013.9,W,2.1
47670,YOKOHAMA,JAPAN,35.4333,139.65,42,22.8,48,1013.6,S,3.6
47672,TATEYAMA,JAPAN,34.9833,139.85,7,21.3,59,1014.4,S,1.6
47674,KATSUURA,JAPAN,35.15,140.3,13,19.9,73,1014.6,W,2.1
47677,MIYAKEJIMA,JAPAN,34.1167,139.5167,39,20.4,57,1015.2,W,6.7
47682,CHIBA,JAPAN,35.6,140.1,6,22.2,60,1013.6,W,4.1
47684,YOKKAICHI,JAPAN,34.9333,136.5667,57,21.0,52,1015.9,S,1.6
47690,NIKKO,JAPAN,36.7333,139.5,1294,12.9,49,-,W,6.2
47742,SAKAI,JAPAN,35.5333,133.2333,3,22.2,27,1015.6,W,4.6
47744,YONAGO,JAPAN,35.4333,133.3333,8,22.0,36,1015.6,W,7.2
47747,TOYOOKA,JAPAN,35.5333,134.8167,5,21.3,61,1016.2,NE,2.6
47750,MAIZURU,JAPAN,35.45,135.3167,4,20.1,59,1016.9,NE,4.1
47754,HAGI,JAPAN,34.4,131.4,3,22.6,43,1016.8,NE,2.6
47756,TSUYAMA,JAPAN,35.05,134.0,147,22.8,46,1015.2,S,2.1
47759,KYOTO,JAPAN,35.0,135.7167,52,23.3,40,1015.9,SW,3.1
47761,HIKONE,JAPAN,35.2667,136.2333,92,19.9,59,1016.5,N,4.6
47766,KURE,JAPAN,34.2333,132.55,5,23.0,36,1016.3,N,3.1
47767,FUKUYAMA,JAPAN,34.4333,133.2333,3,23.7,38,1016.2,SW,2.1
47768,OKAYAMA,JAPAN,34.6833,133.9167,6,24.4,40,1015.8,W,5.1
47769,HIMEJI,JAPAN,34.8333,134.6667,39,20.5,52,1016.3,S,2.6
47770,KOBE,JAPAN,34.6833,135.2,30,21.6,42,1016.7,W,3.1
47776,SUMOTO,JAPAN,34.3333,134.9,112,22.1,37,1016.2,S,3.6
47777,WAKAYAMA,JAPAN,34.2167,135.15,18,20.1,61,1016.8,W,2.6
47780,NARA,JAPAN,34.6833,135.8167,108,22.8,38,1016.2,W,2.6
47784,YAMAGUCHI,JAPAN,34.15,131.45,19,25.5,15,1016.3,W,2.6
47805,HIRADO,JAPAN,33.35,129.55,58,19.3,75,1017.4,S,3.1
47809,IIZUKA,JAPAN,33.65,130.6833,37,25.2,30,1016.4,W,2.1
47812,SASEBO,JAPAN,33.15,129.7167,5,21.4,52,1017.4,NW,3.6
47813,SAGA,JAPAN,33.25,130.3,33,25.2,36,1016.5,S,3.6
47814,HITA,JAPAN,33.3167,130.9167,84,26.5,26,1016.0,W,4.1
47818,UNZENDAKE,JAPAN,32.7333,130.25,679,19.3,40,1016.6,W,1.6
47822,NOBEOKA,JAPAN,32.5667,131.65,21,21.7,56,1017.8,SE,2.1
47823,AKUNE,JAPAN,32.0167,130.2,42,20.6,65,1017.4,W,2.6
47824,HITOYOSHI,JAPAN,32.2167,130.75,147,25.1,23,1015.9,NW,1.0
47829,MIYAKONOJO,JAPAN,31.7167,131.0667,155,24.9,41,1016.3,SW,3.6
47831,MAKURAZAKI,JAPAN,31.2667,130.2833,31,22.3,42,1017.1,S,2.6
47835,ABURATSU,JAPAN,31.5667,131.4,14,21.8,54,1017.1,NE,0.5
47836,YAKUSHIMA,JAPAN,30.3833,130.65,38,22.7,56,1017.4,N,0.5
47838,USHIBUKA,JAPAN,32.1833,130.0167,15,21.7,48,1017.1,W,4.1
47890,TADOTSU,JAPAN,34.2667,133.75,5,23.0,46,1016.1,W,2.6
47892,UWAJIMA,JAPAN,33.2167,132.55,14,22.6,43,1017.2,W,3.6
47893,KOCHI,JAPAN,33.5667,133.5333,4,22.8,47,1016.7,SE,3.1
47895,TOKUSHIMA,JAPAN,34.0667,134.5667,6,21.7,55,1016.3,SE,2.6
47897,SUKUMO,JAPAN,32.9167,132.6833,10,22.1,58,1017.3,W,2.6
47912,YONAGUNIJIMA,JAPAN,24.4667,123.0,36,26.5,70,1011.9,E,2.6
47917,IRIOMOTEJIMA,JAPAN,24.4167,123.75,11,25.6,83,1012.0,E,3.1
47929,KUMEJIMA,JAPAN,26.3333,126.8,6,24.3,65,1014.5,E,4.1
47940,NAGO,JAPAN,26.5833,127.95,7,24.1,64,1014.7,E,4.1
47942,OKINOERABU,JAPAN,27.4167,128.7,29,23.5,66,1015.8,E,5.1
47991,MINAMITORISHIMA,JAPAN,24.2833,153.9833,8,25.4,81,1017.1,NE,5.7
91490,CHRISTMAS ISLAND,ISLANDS IN THE PACIFIC OCEAN NORTH OF THE EQUATOR,1.9833,-157.4833,3,27.6,92,1008.1,E,2.6
